stop_id,stop_name,stop_lon,stop_lat
istb.540,Kınalıada ŞH.,29.055537864,40.91057377
istb.541,Burgazada ŞH.,29.070601567,40.88114657
istb.564,Bostancı ŞH.,29.094057794,40.951485917
istb.528,Büyükada ŞH.,29.127976077,40.875772013
istb.511,Heybeliada ŞH.,29.102048658,40.877072422
istb.526,Yeni Kadıköy ŞH.,29.022709887,40.992993379
istb.517,Kabataş ŞH.,28.993601313,41.033707014
istb.519,Anadolu Kavağı ŞH.,29.087903935,41.173396231
istb.516,Rumeli Kavağı ŞH.,29.075199668,41.181627667
istb.532,Sarıyer ŞH.,29.057584654,41.166269388
istb.561,Kanlıca ŞH.,29.065258217,41.10030966
istb.521,Beşiktaş-Üsküdar ŞH.,29.007361837,41.041040505
istb.525,Eminönü-Üsküdar ŞH.,28.976263159,41.017114148
istb.512,Beykoz ŞH.,29.090313328,41.134311015
istb.529,Paşabahçe ŞH.,29.093198913,41.116817064
istb.514,Çubuklu ŞH.,29.080439978,41.107464371
istb.554,Anadolu Hisarı ŞH.,29.066542996,41.083287781
istb.569,Çengelköy ŞH.,29.051417557,41.051032185
istb.563,Beylerbeyi ŞH.,29.044542188,41.045037527
istb.538,Ortaköy ŞH.,29.025685515,41.047176412
istb.555,Arnavutköy ŞH.,29.043434351,41.06677788
istb.566,Bebek ŞH.,29.044550745,41.076320062
istb.536,Kandilli ŞH.,29.058228391,41.074562274
istb.562,Emirgan ŞH.,29.05613055,41.103060584
istb.560,Üsküdar ŞH.,29.014965992,41.027771506
istb.518,Küçüksu ŞH.,29.065115662,41.079176515
istb.545,İstinye ŞH.,29.061313227,41.113266915
istb.546,Haydarpaşa ŞH.,29.017828966,40.996178541
istb.548,Karaköy ŞH.,28.976570707,41.021760805
istb.534,Eminönü-Kadıköy ŞH.,28.975159856,41.017545704
istb.547,Eyüp ŞH.,28.937830667,41.047314964
istb.549,Sütlüce ŞH.,28.9406836,41.046638031
istb.550,Ayvansaray ŞH.,28.944816008,41.040805782
istb.524,Hasköy ŞH.,28.949099161,41.040583416
istb.530,Kasımpaşa ŞH.,28.966173223,41.030375547
istb.542,Eminönü-Haliç ŞH.,28.968875751,41.019498916
istb.568,Beşiktaş-Kadıköy ŞH.,29.0056554,41.039952744
istb.800323,Söğütlüçeşme,29.037997016,40.991288459
istb.800029,Fikirtepe,29.047433643,40.993731425
istb.800030,Uzunçayır,29.056608794,40.998922929
istb.800031,Acıbadem,29.057260256,41.014565713
istb.800033,Altunizade,29.048624838,41.02153817
istb.800034,Burhaniye Mahallesi,29.047079236,41.032208368
istb.800035,Boğaz Köprüsü,29.043500059,41.036416067
istb.800045,Zincirlikuyu,29.013061185,41.066153985
istb.800047,Topkapı,28.91737789,41.020360304
istb.800041,Cevizlibağ,28.911445954,41.016760948
istb.800040,Merter,28.897650779,41.007811033
istb.800039,Zeytinburnu Metro,28.89064841,41.003306818
istb.800038,İncirli - Ömür,28.872165238,40.997785058
istb.800028,Bahçelievler,28.863471931,40.995059278
istb.800027,Şirinevler,28.846399081,40.991706708
istb.800026,Yenibosna - Kuleli,28.835192544,40.992319262
istb.800025,Sefaköy,28.798517665,40.998583234
istb.800324,Beşyol,28.794867155,40.994276338
istb.800024,Florya - Bağlar,28.790002389,40.987354769
istb.800023,Cennet,28.783087974,40.985369529
istb.800022,Küçükçekmece,28.77009793,40.986469373
istb.800021,İETT Kampı,28.745043486,40.977968307
istb.800020,Şükrübey,28.731838244,40.980087755
istb.800019,İÜ Avcılar Kampüsü,28.725868387,40.983626591
istb.800046,Mecidiyeköy,28.991872515,41.06687435
istb.800042,Çağlayan,28.980710073,41.067365889
istb.800043,SSK Okmeydanı Hastanesi,28.976073013,41.067422007
istb.800036,Perpa,28.967938662,41.062612511
istb.800037,Okmeydanı,28.961027664,41.056398226
istb.800032,Halıcıoğlu,28.946368511,41.048830339
istb.800049,Ayvansaray,28.937969256,41.03905477
istb.800048,Edirnekapı,28.929490127,41.033378702
istb.800181,Maltepe,28.92148128,41.023939637
istb.800333,Avcılar Merkez,28.713823319,40.990600262
istb.800334,Mustafa Kemal Paşa,28.706380972,40.994944392
istb.800335,Saadetdere Mah.,28.693115165,40.999728681
istb.800331,Haramidere Sanayi,28.685049601,41.004377083
istb.800330,Haramidere,28.67300782,41.005979861
istb.800329,Güzelyurt,28.665033411,41.006602333
istb.800328,Beylikdüzü,28.656778855,41.009586239
istb.800327,Beylikdüzü Belediye,28.650108748,41.012165194
istb.800326,Cumhuriyet Mah.,28.641444362,41.015464073
istb.800325,Hadımköy,28.630919751,41.019532277
istb.800332,Beylikdüzü Sondurak,28.625777583,41.021949901
istb.188871,SULTANAHMET,28.97676,41.01556
istb.189156,EMİNÖNÜ İSKELE,28.97556,41.01703
istb.184176,SALIPAZARI,28.98676,41.02881
istb.183387,DOLMABAHÇE SARAYI,28.99556,41.03479
istb.183786,BEŞİKTAŞ MEYDAN,29.00732,41.04375
istb.183478,BARBAROS BULVARI,29.00807,41.04729
istb.191983,BOĞAZİÇİ KÖPRÜSÜ,29.04315,41.03647
istb.191121,MİLLET BAHÇESİ,29.052,41.023
istb.191128,KISIKLI,29.06223,41.02193
istb.191129,KISIKLI,29.06243,41.02203
istb.191120,MİLLET BAHÇESİ,29.05431,41.0239
istb.191984,BOĞAZİÇİ KÖPRÜSÜ,29.04342,41.03682
istb.183477,BARBAROS BULVARI,29.00789,41.04797
istb.193238,AKARETLER,29.00394,41.04165
istb.184406,VALİDEÇEŞME,28.99843,41.043
istb.184409,VİŞNEZADE,28.99591,41.04236
istb.184168,TEKNİK ÜNİVERSİTE,28.99308,41.03791
istb.184158,TAKSİM,28.98632,41.03729
istb.184191,TEPEBAŞI,28.974,41.0329
istb.189051,EMİNÖNÜ MISIRÇARŞISI,28.97039,41.01771
istb.184410,İNÖNÜ STADI,28.995,41.0403
istb.188259,FENER,28.95151,41.0303
istb.188269,FESHANE,28.93784,41.04235
istb.189142,TELEFERİK,28.93462,41.05032
istb.189146,EYÜP HASTANESİ,28.94078,41.05676
istb.189154,İGDAŞ GENEL MD.,28.94352,41.07221
istb.184239,SİLAHTAR,28.94625,41.06932
istb.184230,MİNİATÜRK,28.95039,41.05867
istb.184225,HALİÇ KONGRE MERKEZİ,28.94318,41.05359
istb.184210,KIRMIZI MİNARE,28.9495,41.0425
istb.184196,KASIMPAŞA,28.96705,41.03103
istb.188268,FESHANE,28.9375,41.04333
istb.189143,TELEFERİK,28.93462,41.04989
istb.189052,EDİRNEKAPI TRAMVAY,28.93406,41.03129
istb.189209,TOPKAPI ALT GEÇİT,28.92608,41.02229
istb.188372,MEVLANAKAPI,28.92118,41.01314
istb.188376,SİLİVRİKAPI,28.92088,41.00567
istb.189160,YENİKAPI SAHİL,28.95552,41.0036
istb.189003,KUMKAPI,28.96644,41.00283
istb.189001,ÇATLADIKAPI,28.97457,41.00206
istb.184157,TAKSİM,28.98571,41.03854
istb.184901,SABİHA GÖKÇEN İ.D.H.,29.31503,40.90863
istb.192621,KAVACIK KÖPRÜSÜ,29.09343,41.0875
istb.183454,LEVENT,29.01444,41.0759
istb.183854,Z.KUYU-METROBÜS 2,29.0123,41.06496
istb.185252,KADIKÖY,29.02449,40.99379
istb.192190,HAMZA YERLİKAYA,29.02635,40.99703
istb.192194,İBRAHİMAĞA,29.02911,40.99841
istb.186409,ASKERİ HASTANE,29.0196,41.0028
istb.192195,KOŞUYOLU KÖPRÜSÜ,29.03214,41.00432
istb.192201,ACIBADEM KÖPRÜSÜ,29.04258,41.00242
istb.192210,GÖZTEPE KÖPRÜSÜ,29.07171,40.99284
istb.192212,YENİSAHRA,29.08826,40.98618
istb.185418,OTOYOL KAVŞAĞI,29.32596,40.92981
istb.186952,HARMANDERE,29.32336,40.92908
istb.184989,BENZİNCİ,29.31582,40.92636
istb.187337,HAVAALANI KAVŞAĞI,29.31309,40.92411
istb.184900,SABİHA GÖKÇEN NİZ.,29.31324,40.91217
istb.184899,SABİHA GÖKÇEN NİZ.,29.31349,40.91239
istb.184988,BENZİNCİ,29.31604,40.9263
istb.186951,HARMANDERE,29.32326,40.92826
istb.185419,OTOYOL KAVŞAĞI,29.32511,40.9291
istb.192211,YENİSAHRA,29.08843,40.9867
istb.192209,GÖZTEPE KÖPRÜSÜ,29.07172,40.99343
istb.192203,ACIBADEM METRO İST.,29.04576,41.00198
istb.192199,NUMUNE HASTANESİ,29.02139,41.00501
istb.186408,ASKERİ HASTANE,29.02273,41.00192
istb.192191,HAMZA YERLİKAYA,29.02453,40.9951
istb.188484,KARADENİZ MAH. PERON,28.88387,41.08802
istb.189254,KARADENİZ MAHALLESİ,28.88143,41.08553
istb.189210,MERVE,28.88204,41.08301
istb.188124,MENDERES CADDESİ,28.88144,41.08016
istb.188712,G. ALDOĞAN CAD.,28.88301,41.07759
istb.189252,500 EVLER,28.88313,41.07484
istb.188715,PAPATYA SOKAK,28.88504,41.0737
istb.189323,CEVATPAŞA,28.88307,41.0721
istb.189325,CEVATPAŞA İ.Ö. OKULU,28.88494,41.06979
istb.188673,B.PAŞA ŞEHİR PARKI,28.88623,41.0662
istb.188675,PARK ADA,28.88896,41.06412
istb.189331,YILDIRIM MAHALLESİ,28.89196,41.06367
istb.189332,Ş.KAMİL BALKAN CAD.,28.8971,41.06269
istb.188189,YEŞİL SOKAK,28.89857,41.06095
istb.188221,TUNA İLKÖĞRETİM OKUL,28.89423,41.06088
istb.188254,50 YIL CADDESİ,28.89353,41.05957
istb.188274,B.B.SPOR TESİSLERİ,28.89643,41.05577
istb.188606,KOCATEPE MAHALLESİ,28.89917,41.05238
istb.188280,FORUM İSTANBUL,28.89933,41.04922
istb.188342,KOCATEPE METRO,28.89649,41.04901
istb.189615,İSTANBUL ÜNVRS.AVCIL,28.72187,40.9863
istb.189441,İGS,28.71805,40.98822
istb.189647,AVCILAR LİSESİ,28.71077,40.99248
istb.189444,TÜRKSAN,28.70621,40.99526
istb.193164,AVCILAR E5,28.70218,40.9978
istb.189826,AMBARLI KAVŞAĞI,28.70019,40.99881
istb.190226,SAADETDERE MAH.,28.69597,41.00004
istb.190530,HARAMİDERE SAN.SİT,28.68513,41.0045
istb.190486,HARAMİDERE,28.67384,41.00618
istb.189446,BALABANLI,28.66679,41.00653
istb.193648,REAL,28.65705,41.00956
istb.189449,BÜYÜKŞEHİR KONUTLAR,28.649,41.01276
istb.194010,BİZİMKENT,28.64545,41.01372
istb.189824,BEYLİKDÜZÜ İSKİ,28.63692,41.01715
istb.190532,BEYLİKDÜZÜ (E5),28.6343,41.01815
istb.190552,TÜYAP,28.62432,41.0234
istb.193649,SPOTCULAR,28.61985,41.02555
istb.193632,TABYA,28.60208,41.02566
istb.190541,BÜYÜKÇEKMECE,28.58375,41.02237
istb.189830,ÜSTGECİT,28.5777,41.01996
istb.190545,MİMARSİNAN,28.56509,41.01881
istb.189549,E-5 MİMARSİNAN,28.55961,41.01734
istb.189555,AYMERKEZ,28.54484,41.0141
istb.193810,MALATYA PAZARI,28.54031,41.01302
istb.190460,EKİNOBA,28.53642,41.0122
istb.189858,BATIKÖY İÖO,28.53532,41.01049
istb.189533,M.KEMAL PAŞA BUL.,28.53913,41.0069
istb.189535,DR.SADIK AHMET İÖO,28.54024,41.00636
istb.194194,OBA,28.54152,41.00528
istb.189531,MUHTARLIK,28.54192,41.0042
istb.192939,M.SİNAN KONAKLARI,28.54151,40.99916
istb.189529,ÇARŞI (HTY48),28.53976,40.99541
istb.189527,SİNANOBA,28.53995,40.99289
istb.193540,SAHİL SİTE VİLLALARI,28.54059,40.99146
istb.189525,VİLLALAR,28.53705,40.99145
istb.189635,ANA OKULU,28.53393,40.9927
istb.189519,ATRIUM,28.53457,40.99657
istb.193538,ÇAKMIKLI CADDESİ,28.53229,41.0013
istb.189433,BİLLUR CADDESİ,28.53237,41.00071
istb.193536,GÜZELCE YOLAĞZI,28.532,41.00329
istb.190883,BATIKÖY,28.53291,41.00357
istb.193557,HÜNKARTEPE CAD.,28.53344,41.01459
istb.193555,MURATÇEŞME SAĞ.OCAĞI,28.52962,41.01716
istb.193553,HÜNKARTEPE,28.52794,41.01833
istb.193554,MURATÇEŞME SAĞLIK OC,28.52943,41.01711
istb.193556,HÜNKARTEPE CAD.,28.53357,41.01432
istb.190882,BATIKÖY,28.53268,41.00372
istb.193535,GÜZELCE YOLAĞZI,28.532,41.0028
istb.189432,BİLLUR CADDESİ,28.53218,41.00086
istb.193537,ÇAKMIKLI CADDESİ,28.53223,41.00142
istb.189518,ATRİUM,28.53439,40.99641
istb.189634,ANA OKULU,28.5342,40.99255
istb.189524,VİLLALAR,28.54021,40.99209
istb.193539,SAHİL SİTE VİLLALARI,28.54052,40.9914
istb.189526,SİNANOBA,28.53976,40.99539
istb.189528,ÇARŞI (HTY48),28.54104,40.99802
istb.192938,M.SİNAN KONAKLARI,28.54048,40.99702
istb.189530,MUHTARLIK,28.54262,41.00248
istb.194193,OBA,28.54164,41.00512
istb.189534,DR.SADIK AHMET İÖO,28.54067,41.00621
istb.189532,M.KEMAL PAŞA BUL.,28.53895,41.00705
istb.189857,BATIKÖY İÖO,28.53592,41.01034
istb.190459,EKİNOBA,28.53685,41.01191
istb.189554,AYMERKEZ,28.54482,41.01385
istb.193809,MALATYA PAZARI,28.55076,41.01516
istb.189548,E-5 MİMARSİNAN,28.55982,41.01711
istb.190546,MİMAR SİNAN,28.573,41.01947
istb.193529,BÜYÜKÇEKMECE İSKİ,28.56903,41.019
istb.189829,ÜSTGEÇİT,28.57736,41.01979
istb.190540,BÜYÜKÇEKMECE,28.58485,41.02268
istb.190543,BÜYÜKÇEKMECE-1,28.581,41.02033
istb.189695,FATİH MAHALLESİ,28.59278,41.02434
istb.190547,TABYA 1,28.59825,41.02352
istb.190548,TABYA 2,28.60336,41.02434
istb.190550,ESKİYOL,28.6202,41.0233
istb.190551,TÜYAP,28.62454,41.02359
istb.190531,BEYLİKDÜZÜ (E5),28.63337,41.01861
istb.189823,BEYLİKDÜZÜ İSKİ,28.63719,41.01719
istb.194234,ÇAMLIK,28.64124,41.01549
istb.194009,BİZİMKENT,28.64393,41.01476
istb.189448,BÜYÜKŞEHİR KONUTLAR,28.65016,41.01186
istb.190421,MİGROS,28.65709,41.00923
istb.194376,MİGROS,28.65916,41.00814
istb.189445,BALABANLI,28.6632,41.00711
istb.190485,HARAMİDERE,28.67412,41.00592
istb.190529,HARAMİDERE SAN.SİT.,28.68473,41.00456
istb.190225,SAADATDERE MAH.,28.69058,41.0002
istb.189825,AMBARLI KAVŞAĞI,28.70025,40.99849
istb.193163,AVCILAR E5,28.70229,40.99703
istb.189443,TÜRKSAN,28.70562,40.99516
istb.189646,AVCILAR LİSESİ,28.71088,40.99203
istb.194103,CİHANGİR MAHALLESİ,28.71383,40.99043
istb.189440,İGS,28.7179,40.98814
istb.192868,S.F.KALKANCI İÖO,28.66935,41.00886
istb.193856,MEHMET AKİF ERSOY CA,28.67118,41.01061
istb.193858,SELİN EVLER,28.67239,41.01196
istb.193860,ORHANGAZİ CADDESİ,28.66813,41.01277
istb.192866,UFUK CADDESİ,28.66669,41.01345
istb.192864,BAĞDAT CADDESİ,28.66387,41.01557
istb.192862,MEHTERÇEŞME,28.66486,41.01837
istb.194443,1817.SOKAK,28.66464,41.01975
istb.194437,1866.SOKAK,28.66471,41.02319
istb.194435,CUMHURİYET CADDESİ,28.6638,41.02591
istb.193642,KIRAÇ KÖPRÜ,28.66621,41.02917
istb.189850,CUMHURİYET CADDESİ,28.66308,41.03072
istb.189844,YENİ MAHALLE,28.65926,41.03383
istb.189848,PALMİYE SOKAK,28.65802,41.03485
istb.189846,SU YOLU,28.65569,41.0368
istb.190378,İSKİ TESİSLERİ,28.65133,41.0398
istb.189842,ESEN SOKAK,28.64692,41.04132
istb.189840,FEVZİ ÇAKMAK CADDESİ,28.64639,41.03929
istb.189838,KIRAÇ CAMİİ,28.64655,41.03815
istb.189836,KIRAÇ KÖYÜ,28.64659,41.03645
istb.189828,KIRAÇ BELEDİYESİ,28.64919,41.03389
istb.193683,ALİ RIZA CADDESİ,28.65371,41.0324
istb.189755,KIRAÇ 1,28.65202,41.03336
istb.189752,MERKEZ MAHHALESİ,28.65202,41.02902
istb.193893,YUNUS EMRE CAMİİ,28.65019,41.0277
istb.193895,KAZIM KARABEKİR CADD,28.64528,41.02972
istb.193897,KIRAÇ,28.64046,41.03126
istb.189754,KIRAÇ 1,28.65184,41.03353
istb.193682,ALİ RIZA CADDESİ,28.65376,41.03221
istb.189827,KIRAÇ BELEDİYESİ,28.64924,41.03376
istb.189835,KIRAÇ KÖYÜ,28.64668,41.0366
istb.189837,KIRAÇ CAMİİ,28.64715,41.03832
istb.189839,FEVZİ ÇAKMAK CADDESİ,28.64603,41.03948
istb.189841,ESEN SOKAK,28.646,41.04141
istb.190379,İSKİ TESİSLERİ,28.65129,41.03993
istb.189845,SU YOLU,28.6555,41.03679
istb.189847,PALMİYE SOKAK,28.65797,41.03476
istb.189843,YENİ MAHALLE,28.65911,41.03377
istb.189849,CUMHURİYET CADDESİ,28.66239,41.03089
istb.193641,KIRAÇ KÖPRÜ,28.66588,41.02927
istb.194434,CUMHURİYET CADDESİ,28.66375,41.02578
istb.194436,1866.SOKAK,28.66454,41.02305
istb.194442,1817.SOKAK,28.6645,41.01966
istb.192861,MEHTERÇEŞME,28.66474,41.01816
istb.192863,BAĞDAT CADDESİ,28.66374,41.01551
istb.192865,UFUK CADDESİ,28.66662,41.01317
istb.193859,ORHANGAZİ CADDESİ,28.66819,41.01255
istb.193857,SELİN EVLER,28.67212,41.01201
istb.193855,MEHMET AKİF ERSOY CA,28.67151,41.01058
istb.192867,S.F.KALKANCI İÖO,28.6692,41.00905
istb.193032,YAKUPLU KÖPRÜSÜ,28.66807,41.00693
istb.190447,YENİBOSNA METRO,28.83736,40.99053
istb.189419,KULELİ,28.83544,40.99252
istb.189417,KÜLTÜR ÜNİVERSİTESİ,28.82982,40.99282
istb.189415,FİDANLIK,28.81507,40.99557
istb.189413,MESKENLER,28.80676,41.00084
istb.189411,K.ÇEKMECE BELEDİYESİ,28.7985,40.99889
istb.193659,KARTALTEPE,28.79814,41.00043
istb.192959,BELEDİYE CADDESİ,28.79955,41.00143
istb.189951,SEFAKÖY,28.79804,41.00438
istb.189888,SEFAKÖY POLİS MERK.,28.79844,41.00642
istb.189954,YELDEĞİRMENİ,28.79879,41.00925
istb.189949,BORU SANAYİİ,28.79306,41.0108
istb.189946,KAUCUK SANAYİİ,28.79186,41.01583
istb.190880,KARBOSAN,28.79165,41.01814
istb.189944,TUĞLA HARMANLARI,28.79116,41.02133
istb.189942,MESLEK LİSESİ,28.79097,41.02336
istb.189940,OYAK SİTESİ,28.79061,41.02662
istb.189937,S.ZAİM ÜNİVERSİTESİ,28.78902,41.03442
istb.193708,HALKALI POLİS MERKEZ,28.78794,41.03549
istb.192917,M.AKİF.ERSOY.HASTANE,28.77862,41.03438
istb.190482,TURGUT ÖZAL BULVARI,28.77421,41.0341
istb.190013,YENİDOĞAN,28.77055,41.0336
istb.190401,KONUTBİRLİK KÖPRÜSÜ,28.76641,41.03465
istb.190010,KONUT BİRLİK,28.76393,41.03674
istb.190008,NÜKLEER ARAŞTIRMA M.,28.76199,41.03878
istb.189751,YARIMBURGAZ CAMİİ,28.75661,41.04235
istb.190004,YARIMBURGAZ,28.75327,41.04383
istb.190002,İSTANBUL CADDESİ,28.7492,41.04646
istb.189997,KURUÇEŞME,28.74989,41.05347
istb.189789,KÜÇÜKÇEKMECE GÖLÜ,28.74909,41.05681
istb.189995,ALTINŞEHİR İÖO,28.74804,41.06103
istb.193186,BAYRAMTEPE ÜST GEÇİT,28.75463,41.06186
istb.189993,ALTINŞEHİR MRK.CAMİİ,28.74717,41.06372
istb.190480,ESKİ İSTANBUL CAD.,28.74208,41.06352
istb.190476,AŞIK VEYSEL CADDESİ,28.73497,41.0651
istb.190474,MERCAN SOKAK,28.72814,41.06817
istb.190472,ŞAFAK SOKAK,28.72737,41.06963
istb.190470,TÜRKER SOKAK,28.72477,41.07231
istb.194023,ŞAHİN SOKAK,28.72267,41.07396
istb.190468,KİRAZ SOKAK,28.72066,41.07595
istb.190466,ŞAHİNTEPESİ,28.71749,41.07879
istb.193735,GARİPCAN SOKAK,28.71644,41.083
istb.193738,MURATDERE CADDESİ,28.71768,41.08628
istb.193029,İBRAHİM KOÇARSLAN İÖ,28.71826,41.08936
istb.193737,MURATDERE CADDESİ,28.71758,41.08623
istb.193734,GARİPCAN SOKAK,28.71633,41.08298
istb.190465,ŞAHİNTEPESİ,28.71755,41.07868
istb.190467,KİRAZ SOKAK,28.72041,41.07579
istb.194022,ŞAHİN SOKAK,28.71883,41.07736
istb.190469,TÜRKER SOKAK,28.72468,41.0722
istb.190471,ŞAFAK SOKAK,28.72719,41.0696
istb.190473,MERCAN SOKAK,28.72797,41.06824
istb.190475,AŞIK VEYSEL CADDESİ,28.7344,41.0651
istb.190479,ESKİ İSTANBUL CAD.,28.74213,41.06344
istb.193637,ALTINŞEHİR,28.74799,41.06264
istb.189994,ALTINŞEHİR İÖO,28.74782,41.06108
istb.189788,KÜÇÜKÇEKMECE GÖLÜ,28.749,41.05688
istb.189996,KURUÇEŞME,28.74976,41.05336
istb.190001,İSTANBUL CADDESİ,28.74913,41.04625
istb.190003,YARIMBURGAZ,28.75292,41.04385
istb.189750,YARIMBURGAZ CAMİİ,28.75681,41.04219
istb.190007,NÜKLEER ARAŞTIRMA M.,28.76177,41.0386
istb.190009,KONUT BİRLİK,28.7636,41.03667
istb.190400,KONUTBİRLİK KÖPRÜSÜ,28.76567,41.03484
istb.190012,YENİDOĞAN,28.76979,41.03349
istb.190481,TURGUT ÖZAL BULVARI,28.77388,41.03385
istb.192916,M.AKİF ERSOY HASTANE,28.77863,41.03426
istb.189938,S.ZAİM ÜNİVERSİTESİ,28.78904,41.03394
istb.189941,OYAK SİTESİ,28.79049,41.02703
istb.189943,MESLEK LİSESİ,28.7908,41.02383
istb.189945,TUĞLA HARMANLARI,28.79109,41.02131
istb.190881,KARBOSAN,28.79155,41.01799
istb.189947,KAUCUK SANAYİİ,28.79178,41.01604
istb.189948,BORU SANAYİİ,28.79289,41.01088
istb.193147,ÖZÜRLÜLER MERKEZİ,28.79442,41.00907
istb.189952,SEFAKÖY,28.79742,41.00486
istb.193703,KEMAL PAŞA,28.797,41.00018
istb.189412,MESKENLER,28.81178,40.99852
istb.189414,FİDANLIK,28.8152,40.99468
istb.189416,KÜLTÜR ÜNİVERSİTESİ,28.83075,40.99231
istb.189418,KULELİ,28.83602,40.99197
istb.190934,ESENLER METRO,28.88592,41.03722
istb.189819,ESENLER BELEDİYESİ,28.88435,41.03928
istb.189820,12.SOKAK,28.88196,41.04152
istb.190925,ESENLER,28.88039,41.04302
istb.190916,HAKYEMEZ,28.87941,41.04446
istb.193067,FEVZİ ÇAKMAK MAH,28.87822,41.04647
istb.190913,ÇİFTE DUTLAR,28.87654,41.04917
istb.190909,ATIŞALAN CADDESİ,28.87506,41.05303
istb.194085,ATIŞALANI LİSESİ,28.87608,41.05569
istb.190911,MEHMET AKİF İNAN CAD,28.87251,41.05521
istb.190907,TAŞOCAĞI CADDESİ,28.86955,41.05544
istb.190905,HAVAALANI MAHALLESİ,28.86968,41.0583
istb.190903,KARAOSMANOĞLU CAD.,28.86787,41.06179
istb.190901,İSMETPAŞA İÖO.,28.8644,41.06147
istb.190900,HZ. ALİ CAMİİ,28.86047,41.06224
istb.189674,YÜZYIL,28.85642,41.06583
istb.192905,G.NAKİPOĞLU İÖO,28.85841,41.06697
istb.192903,İKİZ KULELER,28.86118,41.06769
istb.192901,TEKSTİLKENT,28.86631,41.07035
istb.192899,ÇAMLIK,28.86949,41.07287
istb.194232,GİYİMKENT,28.87263,41.07465
istb.192900,TEKSTİLKENT,28.86592,41.07043
istb.192902,İKİZ KULELER,28.861,41.06797
istb.192904,G.NAKİPOĞLU İÖO,28.85826,41.06705
istb.189673,YÜZYIL,28.85634,41.06598
istb.190515,HZ. ALİ CAMİİ,28.85995,41.06234
istb.192931,ŞEHİT ALİKARAHAN CAD,28.8591,41.06036
istb.192929,ORUÇREİS MAHALLESİ,28.86057,41.05688
istb.193069,TUNA MAHALLESİ,28.86305,41.05464
istb.192933,BİRLİK MAHALLESİ,28.86572,41.0486
istb.194072,KAZIM KARABEKİR İÖO,28.87156,41.04689
istb.193995,KAZIM KARABEKİR CAD.,28.87467,41.04564
istb.190924,ESENLER,28.88019,41.04301
istb.190928,ÇİFTE BAKKALLAR,28.88092,41.04158
istb.190929,CUMHURİYET MEYDANI,28.88241,41.03778
istb.190932,ESENLER METRO,28.88781,41.03682
istb.194045,HADIMKÖY YOLU,28.62854,41.02484
istb.192909,HALKKENT SİTESİ,28.62729,41.02737
istb.194043,SAN-BİR 1,28.624,41.03265
istb.194160,SAN-BİR 2,28.62486,41.0377
istb.194041,KIRAÇ SAPAĞI,28.62721,41.04235
istb.190232,SAN-BİR 3,28.62802,41.04791
istb.194158,AZİZ DEMİR,28.62815,41.05281
istb.190230,FABRİKALAR,28.62556,41.05823
istb.190228,ÇAKMAKLI,28.62194,41.0649
istb.190220,SAN-BİR 4,28.62127,41.07063
istb.193477,DEMİRÇEKME,28.62163,41.07122
istb.189383,ALKENT,28.62468,41.07758
istb.189381,ALKENT 2000,28.62581,41.07972
istb.189374,HAVAALANI YOLU,28.6286,41.08629
istb.190222,KARAAĞAÇ KÖY YOLU,28.62706,41.08752
istb.189376,FATİH ÜNİVERSİTESİ,28.62438,41.09047
istb.190221,KARAAĞAÇ KÖY YOLU,28.62712,41.0876
istb.189373,HAVAALANI YOLU,28.62882,41.08683
istb.189371,AKÇABURGAZ,28.63508,41.09184
istb.190300,ESENYURT SAPAĞI,28.63629,41.09547
istb.190243,ÖMERLİ KÖYÜ,28.62775,41.11897
istb.190175,YEŞİLBAYIR KÖYÜ,28.62572,41.12224
istb.194148,PELTEKS,28.62433,41.12987
istb.190091,EKİNOVA,28.62572,41.13747
istb.193818,BAKIRCILAR,28.6244,41.1482
istb.189454,LOJMANLAR,28.62411,41.1534
istb.189575,HADIMKÖY PTT,28.62266,41.1555
istb.189570,HADIMBABA CAMİİ,28.62008,41.15614
istb.192973,HADIMBABA,28.61759,41.15785
istb.192975,HADIMKÖY ÜÇYOL,28.61607,41.16612
istb.192977,YAMAÇ EVLERİ,28.61444,41.16808
istb.193815,MEVLANA CAD.,28.61213,41.17152
istb.192979,VADİ,28.61336,41.16946
istb.193365,NAMIK KEMAL CAD,28.60986,41.17663
istb.192841,OSMANGAZİ İÖO,28.60893,41.1779
istb.192981,İSTASYON MAHALLESİ,28.60819,41.18031
istb.192983,HADIMKÖY TOKİ,28.60736,41.18194
istb.192980,İSTASYON MAHALLESİ,28.61266,41.1705
istb.192840,OSMANGAZİ İÖO,28.61293,41.1701
istb.193364,NAMIK KEMAL CAD.,28.61327,41.16957
istb.192978,VADİ,28.61335,41.16943
istb.193814,MEVLANA CAD.,28.61197,41.1715
istb.192976,YAMAÇ EVLERİ,28.61429,41.16802
istb.192974,HADIMKÖY ÜÇYOL,28.61592,41.16608
istb.192972,HADIMBABA,28.6182,41.15743
istb.189569,HADIMKÖY,28.61396,41.1575
istb.189568,TURGUT ÖZAL CADDESİ,28.61346,41.15633
istb.189573,HADIMKÖY BENZİNCİ,28.61665,41.15219
istb.192922,ÖRFİ Ç.KAYA LİSESİ,28.61881,41.1529
istb.189574,HADIMKÖY PTT,28.62243,41.15546
istb.189453,LOJMANLAR,28.6244,41.1534
istb.190089,BAKIRCILAR,28.62606,41.14797
istb.194147,SOYAK,28.62348,41.13266
istb.190174,YEŞİLBAYIR KÖYÜ,28.62509,41.1221
istb.190242,ÖMERLİ KÖYÜ,28.62749,41.11869
istb.190299,İSTANBUL YOLU,28.63294,41.10817
istb.189375,FATİH ÜNİVERSİTESİ,28.62438,41.09047
istb.193530,TEM ÇIKIŞI,28.6283,41.08341
istb.189380,ALKENT 2000,28.62568,41.07974
istb.189382,ALKENT,28.62437,41.07776
istb.193478,DEMİRÇEKME,28.62314,41.07478
istb.190219,SAN-BİR 4,28.62103,41.07082
istb.190227,ÇAKMAKLI,28.62159,41.06487
istb.190229,FABRİKALAR,28.62546,41.05811
istb.193495,AĞAÇ SARAY EVLERİ,28.62719,41.05495
istb.194157,AZİZ DEMİR,28.62784,41.05275
istb.190231,SAN-BİR 3,28.62764,41.04797
istb.194040,KIRAÇ SAPAĞI,28.6266,41.04113
istb.194159,SAN-BİR 2,28.6245,41.03783
istb.194042,SAN-BİR 1,28.6235,41.03255
istb.194044,HADIMKÖY YOLU,28.62818,41.02485
istb.190442,YENİBOSNA METRO,28.8375,40.99085
istb.190853,KULELİ,28.83633,40.99304
istb.189775,BELEDİYE,28.83494,40.99657
istb.190855,FEVZİ ÇAKMAK MAH.,28.83451,40.99925
istb.190856,Y.BOSNA MERKEZ CAMİİ,28.83428,41.00209
istb.190857,ZAFER MAHALLESİ,28.83311,41.00463
istb.190858,YILDIRIM BEYAZIT CAD,28.83286,41.00787
istb.190859,TAŞYOL,28.82956,41.01065
istb.190861,YENİBOSNA BEŞYOL,28.8262,41.01283
istb.190871,DOĞU SANAYİ SİTESİ,28.82554,41.01519
istb.190873,UÇUŞ RADARI,28.82608,41.01802
istb.192989,M.TAŞKALE PARKI,28.82702,41.01998
istb.190875,BAĞLAR MAHALLESİ,28.82847,41.02325
istb.190877,ATATÜRK CADDESİ,28.82912,41.02606
istb.189766,HÜRRİYET MAHALLESİ,28.82936,41.0277
istb.190259,GÜNEŞLİ MEYDANI,28.8273,41.03161
istb.194397,KOÇMAN CADDESİ,28.82178,41.03162
istb.194399,IŞIK SOKAK,28.81733,41.03095
istb.190139,METRO MARKET,28.81499,41.03096
istb.194403,GÜLBAHAR CADDESİ,28.81459,41.03285
istb.192829,KOCA ÇİMENTEPE,28.81416,41.03557
istb.194405,TEKİN SOKAK,28.81387,41.03796
istb.194017,BASIN TESİSLERİ,28.81304,41.04188
istb.194404,TEKİN SOKAK,28.81372,41.03779
istb.192828,KOCA ÇİMENTEPE,28.81405,41.03566
istb.194402,GÜLBAHAR CADDESİ,28.81443,41.03315
istb.190138,METRO MARKET,28.81486,41.03101
istb.194398,IŞIK SOKAK,28.81776,41.03093
istb.194396,KOÇMAN CADDESİ,28.82119,41.03145
istb.190258,GÜNEŞLİ MEYDANI,28.82698,41.03103
istb.189765,HÜRRİYET MAHALLESİ,28.82921,41.02779
istb.190876,ATATÜRK CADDESİ,28.82902,41.02603
istb.190874,BAĞLAR MAHALLESİ,28.82841,41.0236
istb.192988,M.TAŞKALE PARKI,28.82688,41.02008
istb.190872,UÇUŞ RADARI,28.8259,41.01811
istb.190862,YENİBOSNA BEŞYOL,28.82599,41.01286
istb.190860,TAŞYOL,28.8294,41.01056
istb.190497,FATİH CADDESİ,28.8308,41.00808
istb.189861,FIRIN,28.83104,41.00566
istb.190498,BEYAZ GÜL,28.83062,41.0033
istb.190499,NAMIK KEMAL SOKAK,28.8303,41.00022
istb.190500,İZZET BEGOVİÇ PARKI,28.83077,40.99806
istb.189697,İHLAS KOLEJİ,28.83123,40.99559
istb.190852,KULELİ,28.83545,40.99305
istb.190433,YENİBOSNA METRO,28.83813,40.99077
istb.190850,ŞİRİNEVLER,28.84516,40.99155
istb.193359,BAHCELİEVLER İHL,28.84728,41.00014
istb.193088,MEVLANA CAD,28.8469,41.00266
istb.189851,KERİM ÇAVUŞPAŞA,28.8469,41.00481
istb.190115,ÇAVUŞPAŞA,28.84701,41.00615
istb.190224,KEMAL SUNAL CAD,28.8472,41.00999
istb.190218,KOCA SİNAN POLİS MER,28.8474,41.01248
istb.193531,M.SİNAN.CAMİİ,28.84851,41.0146
istb.193357,TAVUKCU DERESİ,28.84879,41.01631
istb.193355,ORMANTEPE GEÇİTİ,28.84881,41.01873
istb.193086,ÖZŞAH GEÇİTİ,28.84861,41.02081
istb.193084,MOLLA GÜRANİ PARKI,28.8474,41.02619
istb.193082,Y.EMRE KÖPRÜSÜ,28.84852,41.03121
istb.193353,ATATÜRK İÖO,28.84755,41.03332
istb.193351,YAVUZ SELİM CAMİİ,28.84671,41.03609
istb.193080,M.AKİF CADDESİ,28.84873,41.03912
istb.193078,BAĞCILAR ÇİFTLİK,28.84957,41.0426
istb.193074,DEREYOLU,28.8489,41.04413
istb.193076,MEHMET AKİF CAMİ,28.84878,41.04857
istb.193072,NASRETTİN HOCA PARKI,28.84809,41.04983
istb.193091,M.AKIF.BULVARI,28.84838,41.05312
istb.190160,KEMALPAŞA MAHALLESİ,28.85094,41.0554
istb.189855,MATBAACILAR SİTESİ,28.85097,41.05616
istb.189856,BASIN TESİSLERİ,28.84564,41.05872
istb.193070,FATİH MAHALLESİ,28.84863,41.05542
istb.193071,NASRETTİN HOCA PARKI,28.84802,41.05276
istb.193075,MEHMET AKİF CAMİ,28.84803,41.04944
istb.193073,DEREYOLU,28.84862,41.04554
istb.193077,BAĞCILAR ÇİFTLİK,28.8494,41.04229
istb.193079,M.AKİF CADDESİ,28.84841,41.03903
istb.193350,YAVUZ SELİM CAMİİ,28.84653,41.036
istb.193352,ATATÜRK İÖO,28.84769,41.03282
istb.193081,YUNUS EMRE KÖPRÜSÜ,28.84727,41.02962
istb.193083,MOLLAGÜRANİPARKI,28.8472,41.02642
istb.193085,ÖZŞAH GEÇİTİ,28.84743,41.02446
istb.193354,ORMANTEPE GEÇİTİ,28.84813,41.02287
istb.193356,TAVUKCU DERESİ,28.84864,41.0187
istb.190217,KOCASİNAN POLİS MERK,28.84716,41.01259
istb.190223,KEMAL SUNAL CADDESİ,28.8474,41.0086
istb.190116,ÇAVUŞPAŞA,28.84681,41.00563
istb.189852,KERİM ÇAVUŞPAŞA CAD.,28.84669,41.00229
istb.193087,MEVLANA CADDESİ,28.84711,41.00046
istb.193358,BAHCELİEVLER İHL,28.84734,40.99789
istb.190098,ATAKÖY KÖPRÜSÜ,28.84841,40.9921
istb.190849,ŞİRİNEVLER,28.84556,40.99194
istb.190854,KULELİ,28.83483,40.99266
istb.185941,KADIKÖY,29.02476,40.99295
istb.191989,ÇARŞI,29.02554,40.99102
istb.191992,ALTIYOL,29.02982,40.98999
istb.191996,BARIŞ MANÇO,29.0347,40.99064
istb.192050,BELEDİYE,29.03654,40.99273
istb.192053,ZİVERBEY,29.04344,40.98823
istb.192054,KUYUBAŞI,29.04845,40.98597
istb.192056,FAKÜLTELER,29.05244,40.9847
istb.192059,MUSTAFA MAZHAR BEY,29.05947,40.98384
istb.192062,ÇEMENZAR,29.06455,40.98283
istb.192065,GÖZTEPE,29.06808,40.9813
istb.191379,T.M.EFENDİ CAMİİ,29.06624,40.97838
istb.191377,PANSİYONLU İLKOKUL,29.06463,40.97649
istb.191375,ÇİFTE KONAKLAR,29.0634,40.97456
istb.191374,GÖZTEPE,29.0614,40.97214
istb.192017,GÖZTEPE,29.0593,40.97187
istb.192016,ÇİFTE HAVUZLAR,29.05514,40.97413
istb.192047,SELAMİÇEŞME,29.05013,40.97623
istb.192048,FENERYOLU,29.0466,40.97828
istb.192004,KONAK,29.04429,40.97968
istb.192001,KIZILTOPRAK,29.04064,40.98284
istb.191999,Ş.SARAÇOĞLU STADI,29.03877,40.98657
istb.188008,S.ÇEŞME METROBÜS,29.03578,40.99173
istb.191994,SÖĞÜTLÜÇEŞME,29.03359,40.99213
istb.191993,ALTIYOL,29.0297,40.9908
istb.191990,ÇARŞI,29.02554,40.99116
istb.191995,BARIŞ MANÇO,29.03413,40.98706
istb.191997,Ş.SARAÇOĞLU STADI,29.03691,40.98596
istb.192000,KIZILTOPRAK,29.03922,40.98418
istb.192003,IHLAMUR,29.04141,40.98127
istb.192005,YAT LİMANI,29.04161,40.97857
istb.192006,KALAMIŞ,29.04341,40.97493
istb.192013,CEMİL TOPUZLU,29.04735,40.97396
istb.192014,18 MART,29.05072,40.97233
istb.192015,ÇİFTE HAVUZLAR,29.05321,40.97031
istb.186523,TAHRAN LİSESİ,29.05413,40.96885
istb.192019,GÖZTEPE PARK,29.0571,40.96759
istb.191372,TÜTÜNCÜ MEHMET EFEND,29.05901,40.96971
istb.191373,GÖZTEPE,29.06138,40.972
istb.191376,ÇİFTE KONAKLAR,29.06342,40.97447
istb.191378,PANSİYONLU İLKOKUL,29.06475,40.97649
istb.191380,T.M.EFENDİ CAMİİ,29.06603,40.97794
istb.192066,GÖZTEPE,29.06806,40.98106
istb.192061,ÇEMENZAR,29.06396,40.98306
istb.192058,MUSTAFA MAZHAR BEY,29.05924,40.98412
istb.192057,FAKÜLTELER,29.05161,40.985
istb.192052,ZİVERBEY,29.0429,40.98872
istb.192049,BELEDİYE,29.0381,40.99379
istb.185942,KADIKÖY,29.02475,40.99306
istb.192007,KALAMIŞ,29.04252,40.97505
istb.192008,KORUYOLU,29.04009,40.97267
istb.192009,FENERBAHÇE,29.03758,40.96957
istb.192010,LOJMANLAR,29.0403,40.96974
istb.192011,ORDU EVİ,29.04441,40.97147
istb.192012,ALİ FUAT PAŞA,29.04503,40.97288
istb.186507,DR.FARUK AYANOĞLU,29.04732,40.97451
istb.192314,SELAMİÇEŞME,29.05046,40.97538
istb.192315,ÖZGÜRLÜK PARKI,29.0531,40.97957
istb.192316,TRAFİK AMİRLİĞİ,29.05603,40.98084
istb.192060,MUSTAFA MAZHAR BEY,29.05858,40.98329
istb.192055,KUYUBAŞI,29.04793,40.98601
istb.192064,GÖZTEPE,29.06983,40.9813
istb.192069,SAHRAYICEDİT,29.07627,40.98013
istb.191435,SİTELER,29.08006,40.97996
istb.191436,ÜSKÜDAR CADDESİ,29.08473,40.97975
istb.191437,ULAŞTIR SOKAK,29.08726,40.9813
istb.191438,ÇINAR ALTI,29.08417,40.98139
istb.191439,ŞAİR NEDİM,29.07939,40.98111
istb.192072,ETHEMEFENDİ,29.07613,40.97638
istb.191402,ERENKÖY İSTASYONU,29.07534,40.97484
istb.191390,KARAKOL,29.07371,40.9718
istb.191388,TAŞ MEKTEP,29.07185,40.9691
istb.192027,ERENKÖY,29.07029,40.96679
istb.192024,ERENKÖY,29.06931,40.96646
istb.192023,CADDEBOSTAN,29.0656,40.96846
istb.192020,YENİYOL,29.06258,40.9701
istb.192018,GÖZTEPE,29.05624,40.96734
istb.192021,GELENGÜL,29.05963,40.96591
istb.192022,CADDEBOSTAN,29.06445,40.96425
istb.192026,ERENKÖY,29.06748,40.96335
istb.192030,KANTARCI,29.07016,40.96261
istb.191385,BAĞDAT ÇIKIŞI,29.07209,40.96442
istb.192025,ERENKÖY,29.07047,40.96678
istb.191389,TAŞ MEKTEP,29.07186,40.96891
istb.191391,KARAKOL,29.07387,40.97197
istb.191403,ERENKÖY İSTASYONU,29.0755,40.97479
istb.192073,ETHEMEFENDİ,29.07667,40.97712
istb.192068,MERDİVENKÖY MAHALESİ,29.07368,40.98065
istb.192063,GÖZTEPE,29.06932,40.98157
istb.188987,EMİNÖNÜ,28.97009,41.01852
istb.188359,RAGIP GÜMÜŞPALA CAD.,28.96367,41.02063
istb.184184,ŞİŞHANE 6,28.96897,41.02914
istb.183193,TÜRABİ BABA,28.9663,41.0321
istb.184198,DENİZ HASTANESİ,28.96228,41.03424
istb.183160,YENİ ÇEŞME,28.95967,41.03579
istb.184529,ZİNDAN ARKASI,28.96206,41.03911
istb.184527,FATİH NAMAZGAH,28.96054,41.04191
istb.184525,KONAK CAMİİ,28.95915,41.04385
istb.183195,KULAKSIZ ÇEŞME,28.95855,41.04621
istb.184523,FATİH SULTAN CAD.,28.95844,41.04865
istb.184423,ESERLER,28.95952,41.0519
istb.184449,NİŞANGAH,28.96108,41.05303
istb.184434,OKMEYDANI,28.96464,41.05787
istb.184456,DARÜLACEZE,28.96676,41.0602
istb.184458,PERPA 1,28.96822,41.0619
istb.184462,PERPA-6,28.96926,41.06135
istb.184461,PERPA 4,28.97077,41.05966
istb.184475,HALİL RIFAT PAŞA,28.97194,41.05816
istb.184473,İSTAÇ,28.96771,41.05028
istb.184478,KADINLAR ÇEŞMESİ,28.96792,41.0463
istb.184481,PİYALEPAŞA BULVARI,28.96691,41.04237
istb.184492,PİYALEPAŞA,28.96705,41.03935
istb.183241,CAMİİ KEBİR,28.96835,41.03491
istb.183192,TÜRABİ BABA,28.96659,41.0324
istb.184189,ŞİŞHANE 4,28.96952,41.02762
istb.184548,AZAPKAPI,28.9693,41.025
istb.184183,PERŞEMBE PAZARI,28.97033,41.02373
istb.184182,KARAKÖY,28.9746,41.02229
istb.184197,KASIMPAŞA,28.96833,41.0321
istb.184480,A.EMİN YALMAN İLKÖĞ.,28.96986,41.03429
istb.184482,İPLİKCİ,28.97105,41.03806
istb.184491,PİYALEPAŞA,28.9673,41.03951
istb.184479,KADINLAR ÇEŞMESİ,28.96813,41.04508
istb.184474,İSTAÇ,28.96801,41.04992
istb.184476,HALİL RIFAT PAŞA,28.97229,41.05866
istb.184460,PERPA 3,28.97211,41.06141
istb.184459,PERPA 2,28.9675,41.06145
istb.184457,DARÜLACEZE,28.96624,41.05997
istb.184433,OKMEYDANI,28.96508,41.05862
istb.184450,NİŞANGAH,28.96104,41.05312
istb.184424,ESERLER,28.95938,41.05171
istb.184522,FATİH SULTAN CAD.,28.9583,41.04861
istb.183194,KULAKSIZ ÇEŞME,28.95838,41.04631
istb.184524,KONAK CAMİİ,28.95905,41.04367
istb.184526,FATİH NAMAZGAH,28.96031,41.04215
istb.184528,ZİNDAN ARKASI,28.96193,41.03898
istb.183159,YENİ ÇEŞME,28.96004,41.03542
istb.184199,DENİZ HASTANESİ,28.96214,41.03419
istb.186142,TRABLUS SOKAK,29.26626,40.86786
istb.186904,TERSANE LOJMANLARI,29.26329,40.86929
istb.191574,PENDİK HALK PAZARI,29.25039,40.87127
istb.192186,PENDİK,29.24418,40.87378
istb.185519,PENDİK İDO İSKELE,29.23594,40.87568
istb.192175,VETERİNER ARAŞTIRMA,29.21417,40.88012
istb.187436,YUNUS,29.20838,40.883
istb.187281,KUMCULAR,29.20425,40.88395
istb.192169,KÜLTÜR MERKEZİ,29.19763,40.88471
istb.187528,KARTAL SAHİL,29.18718,40.88754
istb.186418,ADNAN KAHVECİ,29.18064,40.88603
istb.186420,9.PALMİYE SAHİL,29.17632,40.88912
istb.184579,YAPI MARKET,29.174,40.89148
istb.185189,TRABZON SPOR,29.16348,40.89738
istb.186424,TEKEL KAMPÜSÜ,29.15635,40.90076
istb.187526,FEV-ORHANTEPE,29.14614,40.90201
istb.186428,DRAGOS SAHİL,29.1382,40.9079
istb.184581,SEMA HASTANESİ,29.1367,40.90937
istb.186430,KUM İSKELESİ,29.13368,40.91345
istb.184746,DR.SADIK AHMET,29.13151,40.91661
istb.186918,İSTASYON YOLU,29.12992,40.91841
istb.186432,ORDUEVİ,29.12658,40.92234
istb.186434,SÜREYYAPAŞA,29.12288,40.92667
istb.186436,EĞLENCE MERKEZİ,29.11965,40.9304
istb.186438,İDEALTEPE,29.11569,40.93489
istb.186916,ÇINAR,29.1116,40.94534
istb.192107,KÜÇÜKYALI,29.10449,40.94503
istb.186442,ALTINTEPE,29.10051,40.94868
istb.192042,İSKELE,29.09408,40.95254
istb.192043,ALTBOSTANCI,29.09745,40.95103
istb.192046,ALTBOSTANCI,29.09702,40.95128
istb.187157,T.ÖZAL BULVARI,29.09747,40.95074
istb.186441,ALTINTEPE,29.10029,40.94846
istb.192106,KÜÇÜKYALI,29.10464,40.94468
istb.186917,ÇINAR,29.11011,40.9412
istb.186439,İDEALTEPE,29.11523,40.93489
istb.186437,EĞLENCE MERKEZİ,29.11989,40.9297
istb.186435,SÜREYYAPAŞA,29.12301,40.92608
istb.186433,ORDUEVİ,29.12668,40.92178
istb.186919,İSTASYON YOLU,29.12979,40.91814
istb.184745,DR.SADIK AHMET,29.13216,40.91547
istb.186431,KUM İSKELESİ,29.13366,40.91274
istb.184582,SEMA HASTANESİ,29.13617,40.9095
istb.186429,DRAGOS SAHİL,29.13842,40.9072
istb.187525,FEV-ORHANTEPE,29.14713,40.90176
istb.186425,TEKEL KAMPÜSÜ,29.15698,40.90016
istb.185190,TRABZON SPOR,29.16638,40.89567
istb.184580,YAPI MARKET,29.17346,40.89154
istb.186421,9.PALMİYE SAHİL,29.17658,40.88832
istb.186419,ADNAN KAHVECİ,29.18154,40.8856
istb.187527,KARTAL SAHİL,29.18663,40.88672
istb.192168,KÜLTÜR MERKEZİ,29.19562,40.88515
istb.187280,KUMCULAR,29.20379,40.88377
istb.187435,YUNUS,29.20902,40.88242
istb.192176,VETERİNER ARAŞTIRMA,29.21503,40.87915
istb.191581,ÖZÜRLÜLER MERKEZİ,29.23232,40.87135
istb.185520,PENDİK İDO İSKELE,29.23603,40.87548
istb.192187,PENDİK,29.24385,40.87362
istb.191573,PENDİK HALK PAZARI,29.24947,40.87154
istb.186905,TERSANE LOJMANLARI,29.26317,40.86914
istb.186143,TRABLUS SOKAK,29.26596,40.86779
istb.184132,MECİDİYEKÖY-M.BUS,28.9916,41.06655
istb.184331,ÇAĞLAYAN YOLU,28.97649,41.06767
istb.184431,OKMEYDANI,28.96119,41.05674
istb.184215,HALICIOĞLU 6,28.94513,41.04927
istb.188266,AYVANSARAY,28.93727,41.03899
istb.189636,BEYKENT KAVŞAĞI,28.6269,41.0172
istb.189450,BEYKENT,28.62782,41.0186
istb.190544,MİMARSİNAN,28.56448,41.01807
istb.189451,BEYKENT,28.62778,41.01879
istb.188265,AYVANSARAY,28.93745,41.03818
istb.184213,HALICIOĞLU 3,28.94587,41.04746
istb.184432,OKMEYDANI,28.95934,41.05506
istb.184330,ÇAĞLAYAN YOLU,28.98014,41.06715
istb.184131,MECİDİYEKÖY-M.BUS,28.99156,41.06654
istb.193421,İSPARTAKULE BLOKLARI,28.70829,41.05964
istb.193419,İSPARTAKULE KONUTLAR,28.71401,41.0644
istb.193658,ŞEHİT ŞERİFE BACI Lİ,28.715,41.06099
istb.193112,T32 CADDESİ,28.71558,41.0583
istb.193692,KOZA EVLERİ YOLU,28.71107,41.05939
istb.193349,KOZA EVLERİ,28.70483,41.06004
istb.193460,BİZİMEVLER KÖPRÜ,28.70073,41.06102
istb.189873,ISPARTAKULE,28.69795,41.06606
istb.189691,GÖLYAKA,28.69456,41.06914
istb.193110,ALAÇAYIR,28.69108,41.07284
istb.189871,GÖLET,28.68823,41.07137
istb.194131,BAHÇEŞEHİR CAMİ,28.68401,41.0689
istb.194133,GÜL,28.68454,41.06712
istb.194134,BAHÇEŞEHİR MERKEZ,28.68755,41.0622
istb.194132,GÜL,28.68442,41.06707
istb.194130,BAHÇEŞEHİR CAMİ,28.68458,41.06987
istb.194129,MANAVGAT,28.68324,41.07254
istb.194127,DÜDEN 1-2-3-4,28.68084,41.07233
istb.194125,DÜDEN 5-6-7,28.6781,41.07078
istb.194123,TORTUM,28.67771,41.06913
istb.194121,DÜDEN 8,28.67733,41.06738
istb.194119,FUNDA 1,28.67572,41.0658
istb.194117,KUZEY BATI KAPISI,28.67564,41.06363
istb.192961,VEDAT ALTUN SOKAK,28.67873,41.06233
istb.192963,MENEKŞE EVLERİ,28.67564,41.05983
istb.192965,S.DEMİREL BULVARI,28.67312,41.05784
istb.192970,ESENKENT,28.6719,41.05505
istb.192964,S.DEMİREL BULVARI,28.67302,41.05791
istb.192962,MENEKŞE EVLERİ,28.67642,41.0607
istb.192960,VEDAT ALTUN SOKAK,28.67872,41.06244
istb.194114,BATI KAPISI,28.67936,41.06295
istb.194116,KUZEY BATI KAPISI,28.67587,41.06362
istb.194118,FUNDA 1,28.67586,41.0659
istb.194120,DÜDEN 8,28.67746,41.06744
istb.194122,TORTUM,28.67788,41.06915
istb.194124,DÜDEN 5-6-7,28.67837,41.0708
istb.194126,DÜDEN 1-2-3-4,28.68072,41.07221
istb.194128,MANAVGAT,28.68315,41.07242
istb.189870,GÖLET,28.68847,41.07107
istb.193111,ALAÇAYIR,28.69156,41.07279
istb.194430,KARŞIYAKA,28.69364,41.07018
istb.189690,GÖLYAKA,28.69452,41.06889
istb.189872,ISPARTAKULE,28.69782,41.06605
istb.193459,BİZİMEVLER KÖPRÜ,28.70365,41.05962
istb.190997,BAKIRKÖY,28.87447,40.98111
istb.191004,YEŞİL KIBRIS,28.87234,40.98559
istb.191006,KLİNİK,28.8722,40.98796
istb.191009,DİKİLİTAŞ,28.87043,40.99153
istb.190895,İNCİRLİ,28.87,40.99488
istb.190845,İNCİRLİ,28.86848,40.99692
istb.190362,BAHÇELİEVLER,28.86454,40.99557
istb.190848,ÇOCUK SİTESİ,28.85852,40.9939
istb.193903,ATAKÖY GEÇİT,28.85252,40.99273
istb.193905,ATAKÖY KÖPRÜSÜ,28.84841,40.9921
istb.192897,SPOTÇULAR ÇARŞISI,28.82338,40.9944
istb.192895,YOLBAKIM 2.BÖLGE,28.82317,40.99672
istb.192891,YENİBOSNA KÖYALTI,28.82263,41.0001
istb.192889,KUYUMCUKENT ÇARŞI,28.81906,41.0008
istb.192888,KUYUMCUKENT,28.81519,41.00392
istb.194431,KARŞIYAKA,28.69386,41.0701
istb.192890,YENİBOSNA KÖYALTI,28.82236,41.00018
istb.192894,YOLBAKIM 2.BÖLGE,28.82292,40.99669
istb.192896,SPOTÇULAR ÇARŞISI,28.82313,40.99451
istb.190920,ADLİ TIP KURUMU,28.82954,40.99368
istb.190434,YENİBOSNA METRO,28.83731,40.99138
istb.190847,ÇOCUK SİTESİ,28.8581,40.99321
istb.190363,BAHÇELİEVLER,28.8645,40.9952
istb.190894,İNCİRLİ,28.86977,40.99494
istb.191010,DİKİLİTAŞ,28.86975,40.99132
istb.191007,KLİNİK,28.86932,40.98882
istb.191013,ŞEKEREVLER,28.86861,40.98616
istb.191014,YÜCETARLA,28.86828,40.98362
istb.190993,ZUHURATBABA,28.86766,40.9814
istb.190994,ZİRAAT ODASI,28.86965,40.98095
istb.193697,K.S.S.ARAŞT.HAST.,28.7615,41.05469
istb.193699,ORTA.MAH.,28.75712,41.05205
istb.193725,HASTANE YOLU,28.75842,41.04755
istb.193727,KATI ATIK TESİSLERİ,28.75966,41.04426
istb.194167,HALKALI CAMLIK,28.79063,41.03391
istb.189863,OSMANGAZİ,28.79334,41.03286
istb.189500,EVLİYA ÇELEBİ,28.79643,41.03041
istb.189966,İNÖNÜ MAHALLESİ,28.79632,41.02671
istb.193106,HAKAN CAD,28.79621,41.02862
istb.189963,PAZAR YOLU,28.79618,41.0245
istb.190335,HALK PAZARI,28.79665,41.02233
istb.189961,100. YIL İÖO,28.79723,41.02019
istb.189959,MASLAKÇEŞME,28.79748,41.01638
istb.189957,SİTELER,28.79779,41.01426
istb.193097,KAZIM BEKTAŞ CAMİİ,28.79812,41.01213
istb.189955,M.ERAVUTMUŞ İÖO.,28.79847,41.01031
istb.189950,BORU SANAYİ,28.79542,41.01015
istb.190998,BAKIRKÖY,28.87446,40.9812
istb.190999,BAKIRKÖY,28.87446,40.9812
istb.190085,İNCİRLİ,28.87037,40.99957
istb.190055,ÇALIŞLAR,28.87107,41.00339
istb.190884,HAZNEDAR,28.87066,41.00639
istb.189816,BAĞCILAR CADDESİ,28.86928,41.00829
istb.190136,İLKYUVA,28.8666,41.01116
istb.190059,İMAM BUHARİ CAMİİ,28.86349,41.01398
istb.190060,SOĞANLI ÇEŞME,28.86091,41.01653
istb.190062,YILDIZTEPE,28.85836,41.02057
istb.190064,PARSELLER,28.85741,41.02333
istb.190066,ESENYOL,28.85726,41.02678
istb.190068,ESKİ KÖY,28.85662,41.0303
istb.189651,BAĞCILAR,28.85752,41.0344
istb.190897,PTT,28.85833,41.03475
istb.189654,PAPATYA,28.85895,41.03765
istb.190240,ÇINAR MAHALLESİ,28.85929,41.03947
istb.189656,FEVZİ ÇAKMAK MAH.,28.85943,41.04266
istb.189658,İBRAHİM ETHEM CAMİİ,28.85983,41.04512
istb.189813,TİRYAKİ H.PAŞA İÖO,28.85997,41.04681
istb.189660,OSMANGAZİ CADDESİ,28.85936,41.04962
istb.189662,OSMANGAZİ PARKI,28.85726,41.05325
istb.189668,BARBOROS CADDESİ,28.85525,41.05675
istb.189670,ZİYA GÖKALP İÖO.,28.85481,41.05982
istb.189672,YENİ CAMİİ,28.85506,41.06238
istb.189897,FATİH CADDESİ,28.85531,41.06729
istb.189899,ATATÜRK CADDESİ,28.85547,41.06981
istb.189901,42 EVLER,28.85738,41.07208
istb.192898,ÇAMLIK,28.86936,41.07298
istb.189900,42 EVLER,28.85796,41.07208
istb.189898,ATATÜRK CADDESİ,28.85533,41.06962
istb.189896,FATİH CADDESİ,28.85518,41.06716
istb.189671,YENİ CAMİİ,28.85501,41.06256
istb.189669,ZİYA GÖKALP İÖO.,28.85469,41.05972
istb.189667,BARBOROS CADDESİ,28.85511,41.05667
istb.190159,KEMALPAŞA MAHALLESİ,28.85077,41.05542
istb.189663,YÜZYIL KÖPRÜSÜ,28.85516,41.05408
istb.189661,OSMANGAZİ PARKI,28.85694,41.05333
istb.193230,İTFAİYE,28.85875,41.05043
istb.189659,OSMANGAZİ CADDESİ,28.85941,41.0493
istb.189812,TİRYAKİ H.PAŞA İÖO,28.85982,41.04702
istb.189657,İBRAHİM ETHEM CAMİİ,28.85973,41.0451
istb.189655,FEVZİ ÇAKMAK MAH.,28.85923,41.04245
istb.190241,ÇINAR MAHALLESİ,28.8591,41.03944
istb.189653,PAPATYA,28.85875,41.03753
istb.190896,PTT,28.85833,41.03474
istb.189652,BAĞCILAR,28.85648,41.03404
istb.190069,ESKİ KÖY,28.85648,41.03028
istb.190067,ESENYOL,28.85716,41.02721
istb.190065,PARSELLER,28.85724,41.02372
istb.190063,YILDIZTEPE,28.85817,41.02071
istb.193547,ARA.SOK.,28.85968,41.01727
istb.190061,SOĞANLI ÇEŞME,28.86013,41.01577
istb.190347,UMUT CADDESİ,28.86227,41.01312
istb.192995,BAHÇELİEVLER İSKİ,28.86432,41.0125
istb.190135,İLKYUVA,28.86654,41.01112
istb.189497,ÖDÜL SOKAK,28.86918,41.0078
istb.190885,HAZNEDAR,28.87112,41.00531
istb.190056,ÇALIŞLAR,28.87088,41.00329
istb.190084,İNCİRLİ,28.87028,40.99991
istb.189867,BAKIRKÖY,28.87447,40.98156
istb.190214,TOPLU KONUT YOLU,28.80444,41.04601
istb.190325,1.ETAP KONUTLARI,28.80113,41.0477
istb.190204,MALAZGİRT CADDESİ,28.79789,41.04743
istb.190202,CUMHURİYET CADDESİ,28.79556,41.04566
istb.190200,TİCARET LİSESİ,28.79607,41.04305
istb.190198,NAYMAN MAHALLESİ,28.79602,41.04102
istb.190196,SAKARYA CADDESİ,28.79291,41.04179
istb.190194,HALKALI YOLU,28.79239,41.04428
istb.193868,İKİTELLİ CADDESİ,28.7933,41.04774
istb.190505,19.SOKAK,28.79195,41.04957
istb.190190,KUTLUTAŞ BLOKLARI,28.78927,41.04751
istb.193550,DEFNE 1.EVLERİ,28.78621,41.04509
istb.193105,AĞAÇLI,28.78278,41.04566
istb.190416,OLYMPİAKENT,28.7852,41.04949
istb.190188,ALARKO BLOKLARI,28.78618,41.05051
istb.190186,ANA OKULU,28.78789,41.05209
istb.190184,ÇİÇEKLİ VADİ,28.79016,41.05445
istb.190182,KUŞLAR TEPESİ,28.79002,41.05666
istb.190180,2.ETAP KONUTLARI,28.78834,41.05837
istb.194166,GÜL,28.78373,41.05924
istb.194164,LALE,28.78168,41.05852
istb.192878,ATAKENT 3.ETAP,28.78141,41.05539
istb.192876,KUZEY KAPISI,28.77767,41.05388
istb.192874,NERGİZ,28.77444,41.05068
istb.192872,KARDELEN,28.77427,41.04691
istb.192870,DOĞA PARKI,28.774,41.04456
istb.193661,C.KAPISI,28.7742,41.04751
istb.192880,HALKALI STADI,28.77494,41.05423
istb.194162,ATAKENT MAHALLESİ,28.77451,41.05713
istb.194161,ATAKENT MAHALLESİ,28.77452,41.0574
istb.192879,HALKALI STADI,28.77456,41.05627
istb.193660,C.KAPISI,28.77391,41.04767
istb.192869,DOĞA PARKI,28.77471,41.05336
istb.192871,KARDELEN,28.77428,41.05056
istb.192873,NERGİZ,28.77701,41.05666
istb.192875,KUZEY KAPISI,28.77794,41.0543
istb.192877,ATAKENT 3.ETAP,28.78147,41.05531
istb.194163,LALE,28.78186,41.05739
istb.194165,GÜL,28.78374,41.05908
istb.190179,2.ETAP KONUTLARI,28.78829,41.05827
istb.190181,KUŞLAR TEPESİ,28.78992,41.05635
istb.190183,ÇİÇEKLİ VADİ,28.78999,41.05445
istb.190185,ANA OKULU,28.78766,41.05194
istb.190187,ALARKO BLOKLARI,28.78635,41.05054
istb.190415,OLYMPİAKENT,28.78511,41.0495
istb.193104,AĞAÇLI,28.78395,41.04707
istb.193549,DEFNE 1.EVLERİ,28.78585,41.0452
istb.190189,KUTLUTAŞ BLOKLARI,28.78924,41.04727
istb.190506,19.SOKAK,28.79191,41.04957
istb.193867,İKİTELLİ CADDESİ,28.79308,41.0478
istb.190193,HALKALI YOLU,28.79211,41.04392
istb.190195,SAKARYA CADDESİ,28.79295,41.04138
istb.190197,NAYMAN MAHALLESİ,28.7962,41.04112
istb.190199,TİCARET LİSESİ,28.79623,41.04314
istb.190201,CUMHURİYET CADDESİ,28.79541,41.04565
istb.190203,MALAZGİRT CADDESİ,28.79805,41.0473
istb.190326,1.ETAP KONUTLARI,28.79962,41.04783
istb.190213,TOPLU KONUT YOLU,28.8042,41.04577
istb.189969,FABRİKALAR,28.78844,41.01328
istb.190508,PAZAR YOLU,28.7867,41.01423
istb.194035,HUZUR CADDESİ,28.78379,41.01702
istb.189728,MEZARLIK,28.7785,41.02096
istb.190353,İSTASYON MAHALLESİ,28.77414,41.02158
istb.192908,GÜLTEPE MEVKİİ,28.77018,41.02095
istb.190018,BEZİRGANBAHÇE TOKİ,28.77423,41.02594
istb.193119,TOKİ KONUTLARI,28.77435,41.02606
istb.190022,BEZİRGANBAHÇE,28.7741,41.02859
istb.194432,ORDU CADDESİ,28.7707,41.02926
istb.194433,YARIMBURGAZ CADDESİ,28.76827,41.03196
istb.193728,KATI ATIK TESİSLERİ,28.75981,41.04426
istb.193726,HASTANE YOLU,28.75856,41.04799
istb.193700,ORTA MAHALLESİ,28.75759,41.05193
istb.190014,YENİDOĞAN,28.76963,41.03306
istb.189683,YENİDOĞAN CAMİ,28.77031,41.03161
istb.189684,BEZİRGANBAHÇE İÖO,28.77253,41.03065
istb.190021,BEZİRGANBAHÇE,28.77384,41.02866
istb.193117,TOKİ KONUTLARI,28.77443,41.02614
istb.190017,BEZİRGANBAHÇE TOKİ,28.77423,41.02596
istb.193545,GÖL KONUTLARI,28.76999,41.02091
istb.192907,GÜLTEPE MEVKİİ,28.77187,41.02143
istb.190352,İSTASYON MAHALLESİ,28.77401,41.0215
istb.189727,MEZARLIK,28.77798,41.02103
istb.194034,HUZUR CADDESİ,28.7834,41.0172
istb.190507,PAZARYOLU,28.78651,41.01424
istb.189968,FABRİKALAR,28.7879,41.01345
istb.191000,BAKIRKÖY,28.87444,40.98128
istb.190851,ŞİRİNEVLER 1,28.84323,40.99258
istb.190295,HÜRRİYET MAHALLESİ,28.84294,40.99435
istb.190524,MAHMUTBEY CADDESİ,28.84283,40.99692
istb.190294,PAZAR YOLU,28.84283,40.99692
istb.190487,15.SOKAK,28.84231,41.00141
istb.190293,22.SOKAK,28.84204,41.00315
istb.190292,ÜÇEVLER,28.84144,41.00732
istb.190291,ŞENDURAK,28.84147,41.0114
istb.190288,İTFAİYE OKULU,28.84198,41.01474
istb.189894,KOCASİNAN İ.Ö.O,28.84179,41.01749
istb.190286,KOCASİNAN,28.84108,41.01897
istb.190284,HASTANE,28.83876,41.02286
istb.190282,BARBAROS MAHALLESİ,28.83715,41.02489
istb.190281,FIRIN,28.83547,41.02823
istb.190277,BAĞCILAR BELEDİYESİ,28.83355,41.0337
istb.190275,KİRAZLI CADDESİ,28.83409,41.03652
istb.189458,İSTANBUL SGK,28.83423,41.03839
istb.190272,KOCA YUSUF İÖO,28.83299,41.04067
istb.189584,ATEŞTUĞLA,28.82862,41.04217
istb.189580,ATEŞTUĞLA,28.83025,41.04637
istb.190266,İNÖNÜ CADDESİ,28.83032,41.0489
istb.190264,KARACAOĞLAN İÖO,28.8302,41.05236
istb.190340,BENZİNCİ,28.83047,41.05714
istb.190263,MAHMUTBEY,28.82777,41.05452
istb.189779,MAHMUTBEY İÖO,28.82613,41.05502
istb.189781,ÇEŞME,28.8253,41.05717
istb.189539,BAHÇELER,28.82514,41.06069
istb.189689,İSTOÇ 19.ADA,28.82058,41.06357
istb.194036,İSTOÇ 19- 20 ADA,28.81908,41.06533
istb.190555,İSTOÇ 14-27. ADA,28.8214,41.06681
istb.190556,İSTOÇ 11-24. ADA,28.82346,41.06827
istb.190921,İSTOÇ 9. ADA,28.82425,41.06931
istb.193996,İSTOÇ,28.8204,41.06973
istb.193497,İSTOÇ 25-26 ADA,28.82207,41.06831
istb.189687,İSTOÇ 9-10. ADA,28.82497,41.06869
istb.194137,İSTOÇ 3 -4 ADA,28.82624,41.06768
istb.189688,İSTOÇ  ÇIKIŞI,28.82737,41.06666
istb.189685,İSTOÇ CAMİİ,28.82937,41.06495
istb.189538,BAHÇELER,28.82506,41.0607
istb.189780,ÇEŞME,28.8252,41.05712
istb.189778,MAHMUTBEY İÖO.,28.82512,41.05487
istb.190262,MAHMUTBEY,28.82753,41.0545
istb.190265,KARACAOĞLAN İÖO,28.83011,41.05153
istb.190267,İNÖNÜ CADDESİ,28.83021,41.04926
istb.189583,ATEŞTUĞLA,28.83008,41.04619
istb.189585,ATEŞTUĞLA,28.83066,41.04439
istb.190273,KOCA YUSUF İÖO,28.83273,41.0409
istb.189457,İSTANBUL SGK,28.834,41.03837
istb.190274,KİRAZLI CADDESİ,28.83393,41.03652
istb.190276,BAĞCILAR BELEDİYESİ,28.83347,41.03372
istb.190280,FIRIN,28.83529,41.02834
istb.190283,BARBAROS MAHALLESİ,28.83701,41.02487
istb.190285,HASTANE,28.83879,41.02261
istb.190287,KOCASİNAN,28.84083,41.01916
istb.189893,KOCASİNAN İÖO,28.84177,41.01729
istb.192839,GAZİ CADDESİ,28.83999,41.01682
istb.192830,MEZBAHA YOLU,28.83909,41.01391
istb.192807,KARABURUN,28.83892,41.01173
istb.192808,MEVLANA CAMİİ,28.83886,41.00913
istb.192809,DEREYOLU,28.83861,41.00684
istb.192831,ZAFER MAHALLESİ,28.83875,41.0029
istb.192810,ÖĞRETMENLER PARKI,28.83862,41.00093
istb.192811,ŞELALE SOKAK,28.83851,40.99936
istb.192832,TÜRKİSTAN,28.8385,40.99633
istb.190414,AHMET YESEVİ CADDESİ,28.83856,40.99389
istb.190435,YENİBOSNA METRO,28.83932,40.99131
istb.191002,BAKIRKÖY,28.87416,40.98129
istb.189758,İNÖNÜ İÖO,28.85042,41.02673
istb.189756,TÜRK TELEKOM,28.85002,41.02955
istb.192834,B SOKAK,28.84963,41.03164
istb.190246,YUNUSEMRE KÖPRÜSÜ,28.84871,41.03247
istb.190248,YUNUS EMRE,28.84647,41.03213
istb.190252,ZÜBEYDE HANIM CAD.,28.8427,41.03462
istb.190254,GÜLVEREN SOKAK,28.84011,41.03466
istb.190256,FEVZİ ÇAKMAK MAH.,28.8378,41.03529
istb.190255,GÜLVEREN SOKAK,28.84012,41.03457
istb.190253,ZÜBEYDE HANIM CAD.,28.84293,41.0345
istb.190249,YUNUS EMRE,28.84649,41.032
istb.190247,YUNUSEMRE KÖPRÜSÜ,28.84872,41.03234
istb.192833,B SOKAK,28.84956,41.03171
istb.189757,TÜRK TELEKOM,28.84995,41.02943
istb.189759,İNÖNÜ İÖO,28.85033,41.02671
istb.190402,İNÖNÜ MAHALLESİ,28.84911,41.02515
istb.189760,SAĞLIK OCAĞI,28.85059,41.02428
istb.189761,YILDIZTEPE MAHALLESİ,28.85383,41.02424
istb.191001,BAKIRKÖY,28.87465,40.98141
istb.190088,PARSELLER,28.79567,41.05049
istb.190192,ATATÜRK MAHALLESİ,28.79337,41.04792
istb.189925,İKİTELLİ GARAJI,28.79124,41.05805
istb.189921,İMSAN SANAYİ SİTESİ,28.78821,41.0627
istb.190411,MASKO 2,28.79579,41.06429
istb.190409,MASKO 1,28.80374,41.06383
istb.189791,ORGANİZE SAN.SİTESİ,28.81052,41.0682
istb.189612,DOLAPDERE SAN.SİTESİ,28.81064,41.07275
istb.189784,ATATÜRK BULVARI,28.80961,41.07616
istb.189609,B.GÜNGÖREN SAN.SİT.,28.8081,41.07864
istb.194144,5.CADDE,28.80951,41.08174
istb.194142,A BLOK,28.81073,41.08513
istb.194140,VİLLALAR,28.81088,41.09095
istb.194084,4.ETAP 2.KISIM,28.81037,41.09585
istb.190342,B BLOK,28.81067,41.09772
istb.190333,ÇINAR  KOLEJİ,28.81093,41.10111
istb.190329,MEVLANA CADDESİ,28.80988,41.10226
istb.194171,KLİNİK,28.80931,41.10448
istb.190123,D BLOK,28.80988,41.106
istb.190016,ÇARŞI,28.81011,41.10857
istb.189924,BAŞAKPAZAR,28.80996,41.11121
istb.189787,ESENBAHÇE,28.81001,41.11319
istb.194170,KUĞU SOKAK,28.81031,41.11469
istb.189545,YUNUS EMRE CADDESİ,28.81017,41.11673
istb.189492,B.ŞEHİR DEV.HASTANES,28.80939,41.11832
istb.194065,BAŞAKŞEHİR 4.ETAP,28.80734,41.12035
istb.189491,BAŞAKŞEHİR DEV.HAST,28.80931,41.11821
istb.189544,YUNUS EMRE CADDESİ,28.81002,41.11676
istb.194169,KUĞU SOKAK,28.81022,41.11458
istb.189786,ESENBAHÇE,28.80975,41.11302
istb.189923,BAŞAKPAZAR,28.8098,41.11129
istb.190015,ÇARŞI,28.81002,41.10834
istb.190122,D BLOK,28.8098,41.10609
istb.190328,MEVLANA CADDESİ,28.8098,41.10217
istb.190332,ÇINAR KOLEJİ,28.81057,41.10085
istb.190341,B BLOK,28.81051,41.0979
istb.194083,4.ETAP 2.KISIM,28.81031,41.09573
istb.194139,VİLLALAR,28.81078,41.09081
istb.194141,A BLOK,28.81065,41.08509
istb.194143,5.CADDE,28.80956,41.08189
istb.189608,B.GÜNGÖREN SAN.SİT.,28.80771,41.07867
istb.189785,ATATÜRK BULVARI,28.80904,41.0765
istb.189611,DOLAPDERE SAN.SİTESİ,28.8103,41.07279
istb.189790,ORGANİZE SAN.SİTESİ,28.81014,41.06807
istb.189939,DEMİRCİLER SİTESİ,28.80535,41.0647
istb.190410,MASKO 1,28.80346,41.06407
istb.190412,MASKO 2,28.79421,41.06448
istb.190413,MASKO 3,28.79072,41.06462
istb.189922,İMSAN SANAYİ SİTESİ,28.78858,41.06162
istb.189926,İKİTELLİ GARAJI,28.79114,41.0578
istb.190191,ATATÜRK MAHALLESİ,28.79316,41.04776
istb.190995,BAKIRKÖY,28.8746,40.98159
istb.190132,MARMARA CADDESİ,28.87331,41.00969
istb.190133,GÜVEN MAHALLESİ,28.87343,41.01163
istb.190134,İLKYUVA,28.8719,41.01352
istb.193424,CETİNTÜRK CADDESİ,28.8707,41.01479
istb.190137,İNÖNÜ CADDESİ,28.86856,41.01985
istb.193175,NECİP FAZIL KISAKÜRE,28.86732,41.02115
istb.190079,SPOR TESİSLERİ,28.87049,41.02361
istb.190077,GÜNGÖREN,28.87238,41.02485
istb.192993,BAĞCILAR DEVLET HAST,28.86996,41.0286
istb.190075,GÜNEŞTEPE,28.86483,41.02955
istb.190073,YÜCEBAĞ,28.86316,41.03187
istb.190517,ESENLER CADDESİ,28.86411,41.03353
istb.190358,EBUBEKİR CAMİİ,28.86784,41.03454
istb.190357,GENÇOSMAN İÖO,28.87183,41.03316
istb.190519,ÜÇYÜZLÜ YOLU,28.87155,41.03639
istb.190972,ÇİNÇİNDERE CADDESİ,28.87169,41.04139
istb.190973,FATİH MAHALLESİ,28.86895,41.04494
istb.193453,TÜRK İSVEÇ İÖO,28.86791,41.04577
istb.194060,KARABAYIR,28.86614,41.04772
istb.190927,ESENLER,28.87917,41.04394
istb.190915,HAKYEMEZ,28.87947,41.04451
istb.192941,FEVZİ ÇAKMAK MAH.,28.87822,41.04643
istb.189916,ULUDAĞ CADDESİ,28.86631,41.05362
istb.193991,ANADOLU CADDESİ,28.86421,41.05563
istb.193992,GAYRET SOKAK,28.86579,41.05771
istb.193157,YILDIRIM CADDESİ,28.8594,41.06439
istb.190899,HZ. ALİ CAMİİ,28.86024,41.06227
istb.190902,İSMETPAŞA İÖO.,28.86436,41.06137
istb.190904,KARAOSMANOĞLU CAD.,28.86794,41.06169
istb.190906,HAVAALANI MAHALLESİ,28.86959,41.05835
istb.190908,TAŞOCAĞI CADDESİ,28.86959,41.05526
istb.190912,MEHMET AKİF İNAN CAD,28.87262,41.05511
istb.194086,ATIŞALANI LİSESİ,28.87575,41.05534
istb.190910,ATIŞALAN CADDESİ,28.87492,41.05289
istb.190914,ÇİFTE DUTLAR,28.87643,41.04903
istb.192940,FEVZİ ÇAKMAK MAH.,28.87808,41.04646
istb.190926,ESENLER,28.8792,41.04402
istb.189895,KAZIM KARABEKİR CAD.,28.87469,41.04569
istb.194071,KAZIM KARABEKİR İÖO,28.87152,41.04683
istb.194059,KARABAYIR,28.86575,41.04839
istb.193452,TÜRK İSVEÇ İÖO,28.86642,41.04717
istb.190974,FATİH MAHALLESİ,28.86851,41.04509
istb.190971,ÇİNÇİNDERE CADDESİ,28.87158,41.04126
istb.190975,ÜÇYÜZLÜ,28.87212,41.03928
istb.190520,ÜÇYÜZLÜ YOLU,28.87115,41.03817
istb.190356,GENÇOSMAN İÖO.,28.87167,41.03364
istb.190359,EBUBEKİR CAMİİ,28.86784,41.03477
istb.190518,ESENLER CADDESİ,28.86434,41.03376
istb.190072,YÜCEBAĞ,28.86304,41.03193
istb.190074,GÜNEŞTEPE,28.86502,41.02942
istb.192990,GÜNGÖREN MEZARLIĞI,28.86757,41.02945
istb.192992,BAĞCILAR DEVLET HAST,28.86989,41.02851
istb.190076,MURATPAŞA,28.87165,41.02622
istb.190370,SOĞANLI CADDESİ,28.86966,41.02485
istb.193721,YAVUZ SELİM CADDESİ,28.86567,41.02345
istb.193722,FEVZİ ÇAKMAK CADDESİ,28.86644,41.02051
istb.193638,VURAL SOKAK,28.86409,41.01864
istb.190490,MIZRAK SOKAK,28.8677,41.01754
istb.190491,SALCI SOKAK,28.86924,41.01636
istb.190492,POSTA CADDESİ,28.87086,41.01461
istb.190493,KINALI CADDESİ,28.8714,41.01323
istb.190494,SEFA SOKAK,28.87278,41.01147
istb.190131,MARMARA CADDESİ,28.87347,41.01013
istb.190887,HAZNEDAR,28.87183,41.00784
istb.190129,TALATPAŞA BULVARI,28.86676,41.00051
istb.190095,YAYLA,28.86213,41.00126
istb.190096,SİYAVUŞPAŞA,28.85773,40.99856
istb.189928,SİYAVUŞPAŞA CADDESİ,28.85625,40.99831
istb.190099,SİYAVUŞPAŞA İÖO,28.85293,41.00003
istb.190101,KOCASİNAN LİSESİ,28.85208,41.00313
istb.190105,ESENLER SOKAK,28.8529,41.00667
istb.190103,M.KEMALPAŞA CADDESİ,28.85389,41.00821
istb.190107,GENÇOSMAN,28.85561,41.01095
istb.190109,SOĞANLI,28.85736,41.0139
istb.189801,TİCARET LİSESİ,28.85524,41.01455
istb.190112,MİMARSİNAN CADDESİ,28.85088,41.01374
istb.190554,R.YAZICIOĞLU KAVŞAĞI,28.84518,41.01367
istb.190290,İTFAİYE OKULU,28.83624,41.01459
istb.192806,PARK,28.83163,41.01451
istb.190863,YENİBOSNA BEŞYOL,28.8249,41.01384
istb.194448,PARK,28.83135,41.01437
istb.190289,İTFAİYE OKULU,28.83603,41.01439
istb.190553,R.YAZICIOĞLU KAVŞAĞI,28.84516,41.0135
istb.190111,MİMARSİNAN CADDESİ,28.8512,41.01374
istb.189800,TİCARET LİSESİ,28.85492,41.01445
istb.190110,SOĞANLI,28.85723,41.01405
istb.190108,GENÇOSMAN,28.85545,41.01101
istb.190104,M.KEMALPAŞA CADDESİ,28.85393,41.00816
istb.190106,ESENLER SOKAK,28.85273,41.00655
istb.190102,KOCASİNAN LİSESİ,28.852,41.00218
istb.190100,SİYAVUŞPAŞA İÖO,28.85219,41.00001
istb.189927,SİYAVUŞPAŞA CADDESİ,28.85604,40.99827
istb.190097,SİYAVUŞPAŞA,28.85772,40.99836
istb.190094,YAYLA,28.86197,41.00095
istb.190093,HUZUREVİ,28.86494,41.00277
istb.190128,TALATPAŞA BULVARI,28.86662,41.00005
istb.190130,FAKÜLTE,28.86828,40.998
istb.189650,BAĞCILAR,28.85629,41.03464
istb.189606,ÇEŞME,28.85281,41.03767
istb.189604,YAVUZSELİM MAHALLESİ,28.85107,41.04262
istb.189602,BAĞCILAR ÇİFTLİK,28.84797,41.04316
istb.189591,DR.C.FEVZİYE İÖO,28.84474,41.04419
istb.189589,DEVEKALDIRIM CAD.,28.84047,41.04425
istb.189587,OSMANGAZİ CAMİ,28.83764,41.04667
istb.189578,ATEŞTUĞLA,28.83494,41.04514
istb.189586,OSMANGAZİ CAMİ,28.83866,41.04572
istb.189588,DEVEKALDIRIM CAD.,28.84029,41.04427
istb.189590,DR.C.FEVZİYE İÖO,28.84458,41.04324
istb.189601,BAĞCILAR ÇİFTLİK,28.84867,41.04297
istb.189603,YAVUZSELİM MAHALLESİ,28.85107,41.04262
istb.189605,ÇEŞME,28.85265,41.0379
istb.190888,HAZNEDAR,28.8714,41.0088
istb.190080,OSMANBEY,28.87525,41.02459
istb.190961,SÖĞÜTLÜ YAYLA,28.87922,41.02201
istb.190963,GENÇ OSMAN,28.87883,41.02661
istb.190965,NENEHATUN MAHALLESİ,28.87674,41.03105
istb.190000,SERİNYAYLA,28.87889,41.03006
istb.190953,GEÇİT SOKAK,28.87845,41.03188
istb.190966,NENEHATUN MAHALLESİ,28.87649,41.03116
istb.190964,GENÇOSMAN,28.8788,41.02608
istb.190962,SÖĞÜTLÜ YAYLA,28.87901,41.02184
istb.190081,OSMANBEY,28.87512,41.0245
istb.190078,GÜNGÖREN,28.8722,41.02586
istb.194154,DEĞİRMEN BAHÇE CAD.,28.8237,41.01337
istb.194152,ALTINYILDIZ,28.81946,41.01228
istb.194150,İHLAS EVLERİ,28.81783,41.00946
istb.192912,ALTINYILDIZ İÖO.,28.81805,41.00687
istb.190866,YENİBOSNA,28.82133,41.00767
istb.193662,29 EKİM CADDESİ,28.81955,41.00378
istb.192893,YENİBOSNA KÖYALTI,28.82133,41.00143
istb.192887,KUYUMCUKENT,28.81519,41.00391
istb.184163,TAKSİM,28.98899,41.03834
istb.184164,TAKSİM,28.98554,41.03859
istb.184195,TARLABAŞI,28.9815,41.03672
istb.184193,ÖMER HAYYAM,28.976,41.0357
istb.184188,ŞİŞHANE 1,28.97158,41.0298
istb.184187,ŞİŞHANE 3,28.96991,41.02793
istb.189113,UNKAPANI,28.95897,41.0204
istb.189107,MÜZE,28.95702,41.01762
istb.189105,İST.BÜYÜKŞEHİR BELED,28.95466,41.01501
istb.189103,PERTEVNİYAL V.SULTAN,28.95312,41.01181
istb.189098,YUSUFPAŞA,28.94803,41.01007
istb.189064,HASEKİ,28.94454,41.01087
istb.189095,FINDIKZADE,28.94019,41.01217
istb.189093,ÇAPA,28.93526,41.01463
istb.189091,İSTANBUL TIP FAKÜLTE,28.9314,41.01639
istb.189089,PAZARTEKKE,28.92912,41.01747
istb.189207,MİLLET CADDESİ,28.92665,41.01866
istb.189086,PANORAMA 1453,28.92015,41.01953
istb.188461,CEVİZLİBAĞ,28.91039,41.01654
istb.190836,NAKLİYECİLER SİTESİ,28.89951,41.00939
istb.190838,TINAZTEPE,28.89662,41.00738
istb.190841,KOCATEPE,28.88023,41.00023
istb.190889,HAZNEDAR,28.86841,41.00508
istb.190092,HUZUREVİ,28.86502,41.00304
istb.190397,TAŞYOL,28.86322,41.00214
istb.190127,YAYLA CAMİİ,28.85941,41.00369
istb.190125,DELİ HÜSEYİN PAŞA C.,28.85991,41.00606
istb.190124,BASINSİTESİ,28.86016,41.00853
istb.190369,FERİT SELİM CADDESİ,28.85892,41.00672
istb.190126,YAYLA CAMİİ,28.85922,41.00369
istb.190890,HAZNEDAR,28.86864,41.005
istb.190844,İNCİRLİ .E.5.,28.87263,40.99768
istb.190946,BAKIRKÖY ADLİYESİ,28.87677,40.99876
istb.190842,KOCATEPE,28.88906,41.00241
istb.190839,TINAZTEPE,28.89874,41.00825
istb.190837,NAKLİYECİLER SİTESİ,28.90339,41.01152
istb.188462,CEVİZLİBAĞ,28.90976,41.0153
istb.189085,PANORAMA 1453,28.91893,41.01896
istb.189206,MİLLET CADDESİ,28.92345,41.01955
istb.189088,PAZARTEKKE,28.9294,41.01698
istb.189090,İSTANBUL TIP FAKÜLTE,28.93173,41.01582
istb.189092,ÇAPA,28.93687,41.01331
istb.189094,FINDIKZADE,28.94075,41.01147
istb.189063,HASEKİ,28.94425,41.01056
istb.189097,YUSUFPAŞA,28.9475,41.00965
istb.189104,PERTEVNİYAL V.SULTAN,28.95351,41.01169
istb.189106,İST.BÜYÜKŞEHİR BELED,28.95421,41.01424
istb.189108,MÜZE,28.95773,41.01816
istb.189114,UNKAPANI,28.95943,41.02044
istb.184185,ŞİŞHANE 2,28.9719,41.02948
istb.184190,TEPEBAŞI,28.97446,41.03395
istb.184192,ÖMER HAYYAM,28.978,41.0359
istb.184194,TARLABAŞI,28.9812,41.03645
istb.184165,TAKSİM,28.98434,41.03747
istb.184128,MECİDİYEKÖY-M.BUS,28.99289,41.06644
istb.193892,ATIŞALANI YANYOL,28.87491,41.04953
istb.189905,BİRLİK MAHALLESİ,28.87158,41.05143
istb.193702,GAZİ CADDESİ,28.86283,41.0546
istb.193900,ORUÇREİS,28.85981,41.05473
istb.189665,YÜZYIL KÖPRÜSÜ,28.85534,41.05569
istb.190158,FATİH MAHALLESİ,28.84571,41.05636
istb.190155,M.İBNİ CEBEL CAMİİ,28.8424,41.05566
istb.190153,GÖZTEPE MEYDANI,28.83776,41.05429
istb.190424,YEL DEĞİRMENİ,28.83256,41.05359
istb.190922,TÜRK TELEKOM,28.83159,41.03378
istb.192819,FEVZİ ÇAKMAK CADDESİ,28.82314,41.03279
istb.192818,AHMET YESEVİ PARKI,28.82302,41.036
istb.190336,EVREN MAHALLESİ,28.82422,41.03802
istb.192817,AHMET YESEVİ PARKI,28.8228,41.03589
istb.190260,BAĞCILAR G.O.PAŞA İÖ,28.83224,41.03104
istb.189582,ATEŞTUĞLA,28.83068,41.04457
istb.190425,YEL DEĞİRMENİ,28.83332,41.05359
istb.190154,GÖZTEPE MEYDANI,28.83889,41.05433
istb.190156,M.İBNİ CEBEL CAMİİ,28.84188,41.05542
istb.190157,FATİH MAHALLESİ,28.84742,41.05649
istb.189902,TUNA MAHALLESİ,28.86053,41.05375
istb.189903,MEHMET AKİF ERSOY CD,28.86636,41.05269
istb.189904,BİRLİK MAHALLESİ,28.87049,41.05099
istb.189906,KAZIM KARABEKİR MAH.,28.87537,41.04826
istb.188193,BEYAZIT,28.96594,41.00936
istb.189101,BEYAZIT ÜNİVERSİTE,28.96262,41.00963
istb.189099,LALELİ,28.95613,41.00962
istb.188997,AKSARAY,28.94856,41.01152
istb.188241,İSKENDERPAŞA,28.94501,41.01394
istb.188243,OĞUZHAN,28.94285,41.01548
istb.188247,İSTANBUL EMNİYET MÜD,28.93952,41.01778
istb.188248,BEZMİALEM VAKIF ÜNİV,28.93526,41.02067
istb.188252,ULUBATLI,28.93039,41.02404
istb.189666,YÜZYIL KÖPRÜSÜ,28.85619,41.05551
istb.188251,ULUBATLI,28.93034,41.0236
istb.188249,BEZMİALEM VAKIF ÜNİV,28.93432,41.0208
istb.188246,İSTANBUL EMNİYET MÜD,28.93777,41.01847
istb.188244,OĞUZHAN,28.94081,41.01639
istb.188242,İSKENDERPAŞA,28.94457,41.01379
istb.188998,AKSARAY,28.94833,41.01121
istb.189162,ORDU CADDESİ,28.95513,41.00947
istb.189100,LALELİ,28.95881,41.00943
istb.189102,BEYAZIT ÜNİVERSİTE,28.96349,41.00928
istb.193827,K.BURGAZ.ÜNİVERSİTE,28.81997,41.05761
istb.190114,ÇAVUŞPAŞA CADDESİ,28.84979,41.00779
istb.190113,KARAKENT SİTESİ,28.8501,41.01066
istb.188982,EMİNÖNÜ,28.96993,41.01829
istb.190843,İNCİRLİ (E-5),28.87343,40.9983
istb.189796,A.MENDRES AND.LİSESİ,28.86021,41.00272
istb.189109,UNKAPANI,28.95988,41.02099
istb.190846,İNCİRLİ,28.86839,40.99643
istb.184161,TAKSİM,28.98581,41.0374
istb.188289,ORUÇGAZİ İÖO.,28.95305,41.01255
istb.189159,YENİKAPI İSTASYON,28.95346,41.00497
istb.189015,LANGA-DAVUTPAŞA,28.94828,41.00214
istb.189018,İSTANBUL HST. SAHİL,28.94109,41.00223
istb.189185,GENÇOSMAN SAHİL,28.93328,40.9991
istb.189022,NARLIKAPI,28.93002,40.99459
istb.189024,HAVAGAZI,28.92724,40.99217
istb.189026,YEDİKULE SAHİL,28.92139,40.98914
istb.189522,BEŞ KARDEŞLER,28.90912,40.98544
istb.189520,MARMARA DENİZİ,28.9022,40.9801
istb.190892,ZEYTİNBURNU,28.89278,40.98197
istb.189517,SÜMERBANK,28.88733,40.97986
istb.189515,SAKIZ AĞACI,28.88164,40.97726
istb.189513,CEVİZLİK,28.87539,40.97423
istb.189511,GEZİ YOLU,28.87189,40.97494
istb.191017,ATAKÖY 2.KISIM,28.86223,40.97644
istb.189339,ÖMER.DÜRÜK.CAMİİ,28.85712,40.97771
istb.189341,ATAKÖY 5.KISIM,28.85319,40.97769
istb.192884,YEŞİLYURT,28.83633,40.96564
istb.192881,ATATÜRK HAVALİMANI,28.81722,40.9801
istb.192882,HAVAALANI DIŞ HATLAR,28.81937,40.9788
istb.192883,YEŞİLYURT,28.83588,40.96508
istb.189342,ATAKÖY 5.KISIM,28.85335,40.9775
istb.189340,ÖMER.DÜRÜK.CAMİİ,28.85704,40.97746
istb.191018,ATAKÖY 2.KISIM,28.86242,40.9763
istb.189512,GEZİ YOLU,28.87121,40.97481
istb.189514,CEVİZLİK,28.87608,40.97418
istb.189516,SAKIZ AĞACI,28.88189,40.97717
istb.190893,ZEYTİNBURNU,28.88712,40.9794
istb.189521,MARMARA DENİZİ,28.90663,40.98167
istb.189523,BEŞ KARDEŞLER,28.91002,40.98683
istb.189025,YEDİKULE SAHİL,28.92197,40.98897
istb.189023,HAVAGAZI,28.9277,40.9922
istb.189184,GENÇOSMAN SAHİL,28.93473,41.00022
istb.189017,İSTANBUL HST. SAHİL,28.93929,41.00197
istb.189014,LANGA-DAVUTPAŞA,28.94924,41.00188
istb.189158,YENİKAPI İSTASYON,28.95372,41.00502
istb.189200,YENİKAPI TRANSİT,28.95363,41.00771
istb.190452,BAKIRKÖY,28.87332,40.98222
istb.188983,EMİNÖNÜ,28.96994,41.01823
istb.190453,BAKIRKÖY,28.87405,40.98261
istb.190053,KARTALTEPE,28.87738,40.9842
istb.190052,KOŞUYOLU,28.88101,40.98647
istb.190049,AKSU (VELİEFENDİ),28.88295,40.98897
istb.190298,SSK OSMANİYE,28.88078,40.99148
istb.190919,İNCİRLİ YOLU,28.88019,40.99376
istb.189770,BAKIRKÖY ADLİYESİ,28.87983,40.99525
istb.193832,İBNİSİNA İ.Ö.O,28.88543,40.99558
istb.189769,BAKIRKÖY ADLİYESİ,28.88084,40.99614
istb.189366,BAKIRKÖY METRO,28.87549,40.99551
istb.190918,İNCİRLİ YOLU,28.88036,40.99367
istb.190297,SSK OSMANİYE,28.88137,40.99141
istb.190048,OSMANİYE,28.88333,40.99074
istb.190050,AKSU,28.88455,40.98907
istb.190051,KOŞUYOLU,28.88088,40.98657
istb.190054,KARTALTEPE,28.87702,40.98434
istb.184156,TAKSİM,28.98582,41.03752
istb.188162,TOPKAPI ZEYTİNBURNU,28.92189,41.0162
istb.188374,KOZLU,28.92161,41.00954
istb.188378,BELGRATKAPI,28.91987,41.00108
istb.188380,GÖĞÜS HASTANESİ,28.91706,41.0002
istb.188382,Z.BURNU DİKİLİTAŞ,28.91263,40.99959
istb.188384,OLİVİUM,28.90815,40.99768
istb.188386,BEŞTELSİZ,28.90408,40.99758
istb.188575,Z.BURNU KAYMAKAMLIK,28.90249,40.99526
istb.188665,Z.BURNU ÇARŞISI,28.90382,40.99298
istb.188487,58.BULVAR,28.90372,40.99068
istb.188488,MERVE CADDESİ,28.90293,40.98821
istb.188573,YEŞİL TULUMBA,28.90062,40.98779
istb.188390,SÜMER,28.89694,40.9875
istb.188567,Ş.ER YAVUZ BAHAR CAD,28.8955,40.98505
istb.188492,ZEYTİNBURNU TEK,28.89317,40.98433
istb.188490,DENİZATI SİTELERİ,28.89268,40.98645
istb.188657,BOZKURT,28.89395,40.9901
istb.188669,MATBAACILAR,28.89443,40.99248
istb.188398,VELİEFENDİ MAH.,28.89384,40.99335
istb.188395,ZEYTİNBURNU,28.89116,41.00113
istb.188591,ÇIRPICI,28.89463,41.00073
istb.188666,YEŞİLTEPE,28.89443,40.99898
istb.188667,Z.BURNU ÇEŞME,28.89519,40.99676
istb.188565,PROF.TURAN GÜNEŞ CAD,28.89489,40.99433
istb.188668,MATBAACILAR,28.89419,40.99215
istb.188656,BOZKURT,28.89353,40.98929
istb.188489,DENİZATI SİTELERİ,28.89245,40.98657
istb.188491,ZEYTİNBURNU TEK,28.8931,40.9835
istb.188397,ZÜBEYDE HANIM CAD.,28.89533,40.98264
istb.188566,Ş.ER YAVUZ BAHAR CAD,28.89543,40.98496
istb.188658,KAZIM ÖZALP İÖO,28.89737,40.98576
istb.188659,NURİ PAŞA MAHALLESİ,28.9011,40.98565
istb.188660,ZEYTİNBURNU İSTASYON,28.90355,40.98553
istb.188661,ZEYTİNBURNU KIZILAY,28.90558,40.98628
istb.188662,YENİDOĞAN,28.90542,40.9887
istb.188663,GÖKALP,28.9051,40.99059
istb.188664,ZEYTİNBURNU EMNİYET,28.90516,40.99307
istb.188574,Z.BURNU KAYMAKAMLIK,28.90453,40.99491
istb.188385,BEŞTELSİZ,28.90473,40.99764
istb.188383,OLİVİUM,28.90815,40.99759
istb.188381,Z.BURNU DİKİLİTAŞ,28.91275,40.99954
istb.188379,GÖĞÜS HASTANESİ,28.91659,41.00013
istb.188377,BELGRATKAPI,28.91995,41.00082
istb.188375,SİLİVRİKAPI,28.92126,41.00624
istb.188373,KOZLU,28.92177,41.00969
istb.188371,MEVLANAKAPI,28.9214,41.01379
istb.188161,TOPKAPI ZEYTİNBURNU,28.92196,41.01624
istb.184123,MECİDİYEKÖY-MEZARLIK,28.99034,41.06637
istb.183224,TAŞITLAR,28.99089,41.06738
istb.184349,KARKUYUSU,28.98924,41.06746
istb.184347,İZZETPAŞA,28.98565,41.06803
istb.184332,HÜRRİYET TEPESİ,28.98421,41.0653
istb.184469,ÇİFTECEVİZLER,28.97939,41.06477
istb.188954,DİŞ POLİKLİNİĞİ,28.97333,41.0664
istb.184465,OKMEYDANI EĞT.HAST2,28.97143,41.06571
istb.184463,OKMEYDANI DEREYOLU,28.96984,41.0641
istb.184445,CEMAL KAMACI,28.95878,41.05319
istb.184440,ÇIKSALIN,28.95347,41.0521
istb.184430,BADEMLİK,28.94731,41.05209
istb.189221,ŞEHİTLİK,28.93044,41.03486
istb.188295,EDİRNEKAPI KALEBOYU,28.93322,41.02925
istb.189208,TOPKAPI ALT GEÇİT,28.92632,41.0223
istb.188296,EDİRNEKAPI KALEBOYU,28.93335,41.029
istb.188348,EDİRNEKAPI SURİÇİ,28.93636,41.03102
istb.189220,ŞEHİTLİK,28.93255,41.03289
istb.184218,HALICIOĞLU 4,28.94561,41.04716
istb.184212,HALICIOĞLU 5,28.94626,41.04952
istb.184429,BADEMLİK,28.94878,41.05267
istb.184438,ÇIKSALIN,28.95385,41.05219
istb.184446,CEMAL KAMACI,28.95934,41.05288
istb.184464,OKMEYDANI EĞT.HAST1,28.97176,41.06484
istb.188953,DİŞ POLİKLİNİĞİ,28.97433,41.06602
istb.184468,ÇİFTECEVİZLER,28.97916,41.06486
istb.184333,HÜRRİYET TEPESİ,28.9855,41.06575
istb.188391,ZEYTİNBURNU,28.89118,41.0012
istb.188991,EMİNÖNÜ,28.9705,41.01836
istb.184129,MECİDİYEKÖY-M.BUS,28.992,41.06639
istb.190840,TINAZTEPE,28.89417,41.0066
istb.190177,NADİDE SOKAK,28.89169,41.0083
istb.190496,ULAŞIM DAİRE BAŞKANL,28.88967,41.00955
istb.190173,VEYSEL KARANİ CAMİİ,28.88673,41.00953
istb.190171,FATİH CADDESİ,28.88477,41.01239
istb.190169,CAMCIOĞLU,28.88345,41.01441
istb.189499,POLİS MERKEZİ,28.88472,41.01744
istb.194233,ÇEŞME YOLU,28.88419,41.01889
istb.190960,ÇEŞME,28.88298,41.01891
istb.190086,GÜVEN PARKI,28.87605,41.01572
istb.190167,ABDİİPEKCİ CAD,28.87383,41.01616
istb.189811,İZZET ÜNVER.LİSESİ,28.87148,41.01717
istb.193176,NECİP FAZIL KISAKÜRE,28.86678,41.02129
istb.189809,YAVUZ SELİM CAMİİ,28.86508,41.02299
istb.189726,KONUT SOKAK,28.86287,41.02497
istb.189807,YAVUZ SELİM CADDESİ,28.86142,41.02707
istb.189805,GÜNEŞTEPE MAHALLESİ,28.86107,41.02893
istb.192991,GÜNGÖREN MEZARLIĞI,28.86753,41.02954
istb.189804,GÜNEŞTEPE MAHALLESİ,28.86008,41.02916
istb.189806,YAVUZ SELİM CADDESİ,28.86126,41.02703
istb.189725,KONUT SOKAK,28.86284,41.02478
istb.189808,YAVUZ SELİM CAMİİ,28.86531,41.02266
istb.189810,İZZET ÜNVER LİSESİ,28.87134,41.01708
istb.190166,ABDİ İPEKCİ CAD,28.87401,41.01588
istb.190087,GÜVEN PARKI,28.87659,41.01574
istb.190165,MERTER KERESTECİLER,28.88287,41.01864
istb.189498,POLİS MERKEZİ,28.88449,41.01735
istb.190168,CAMCIOĞLU,28.88327,41.01498
istb.190170,FATİH CADDESİ,28.88575,41.01123
istb.190172,VEYSEL KARANİ CAMİİ,28.88741,41.00792
istb.190176,50. YIL A.MERTER İÖO,28.88907,41.00532
istb.190245,YAVUZ SELİM,28.8534,41.03381
istb.190251,YUNUS EMRE,28.84626,41.03203
istb.189783,H.AHMET YESEVİ CAD,28.8441,41.03156
istb.190392,BESTE SOKAK,28.83734,41.03702
istb.190399,HALK SARAYI,28.83581,41.04245
istb.190394,DÖKÜMCÜLER CADDESİ,28.83546,41.0434
istb.190393,DÖKÜMCÜLER CADDESİ,28.83538,41.04341
istb.190398,HALK SARAYI,28.8357,41.04229
istb.190391,BESTE SOKAK,28.8372,41.03693
istb.189782,H.AHMET YESEVİ CAD.,28.84423,41.03146
istb.190250,YUNUS EMRE,28.84679,41.03203
istb.190244,YAVUZ SELİM,28.85291,41.03413
istb.190947,FETİH KOLEJİ,28.90109,41.01335
istb.190950,ARI SITESİ,28.8958,41.0106
istb.190952,TOZKOPARAN,28.89669,41.01519
istb.192947,MUHTARLIK,28.89733,41.01645
istb.190954,SOSYAL MESKENLER,28.89785,41.01783
istb.190956,SANTRAL,28.88995,41.01762
istb.189363,EŞREF BİTLİS CADDESİ,28.88759,41.01748
istb.190959,GÜNGÖREN ÇEŞME,28.8829,41.01955
istb.193710,SANCAKLI CADDESİ,28.88108,41.02251
istb.193729,SANAYİ MAHALLESİ,28.88037,41.02533
istb.193548,KARAGÖZ SOKAK,28.87932,41.02575
istb.190082,SÖĞÜTLÜ YAYLA,28.87844,41.02189
istb.190886,HAZNEDAR,28.87183,41.00822
istb.190083,SÖĞÜTLÜ YAYLA,28.87835,41.02183
istb.190958,GÜNGÖREN ÇEŞME,28.88135,41.02068
istb.189362,EŞREF BİTLİS CADDESİ,28.88739,41.01728
istb.190957,SANTRAL,28.88878,41.01726
istb.192944,TOZKOPARAN MAHALLESİ,28.8944,41.01878
istb.190955,SOSYAL MESKENLER,28.89762,41.01872
istb.190461,DAVUTPAŞA,28.89995,41.01986
istb.192945,KALE İŞ MERKEZİ,28.90388,41.01997
istb.190144,MERAM,28.90642,41.0204
istb.190145,MİTHATPAŞA,28.91061,41.02034
istb.190146,PTT LOJMANLARI,28.91601,41.02189
istb.188651,MATBAACILAR SİTESİ,28.91978,41.02391
istb.189048,TOPKAPI METROBUS,28.92253,41.0241
istb.189212,TOPKAPI BAYRAMPAŞA,28.92401,41.02336
istb.189119,FATİH İTFAİYE,28.95256,41.01579
istb.189121,FATİH,28.94905,41.01829
istb.189123,YAVUZSELİM,28.94559,41.02168
istb.189125,ATİKALİ,28.94276,41.02384
istb.189127,KARAGÜMRÜK,28.94068,41.02535
istb.189129,ACIÇEŞME,28.93847,41.02757
istb.189131,EDİRNEKAPI,28.93686,41.03048
istb.189908,YENİHAL,28.88544,41.04983
istb.189910,OTOGAR YOLU,28.88767,41.03883
istb.189911,OTOGAR,28.89511,41.03985
istb.189915,OTOGAR,28.89384,41.03951
istb.189909,OTOGAR YOLU,28.89186,41.03672
istb.189130,EDİRNEKAPI,28.93673,41.0294
istb.189128,ACIÇEŞME,28.93843,41.02737
istb.189126,KARAGÜMRÜK,28.94056,41.02522
istb.189124,ATİKALİ,28.9432,41.02337
istb.189122,YAVUZSELİM,28.94583,41.02126
istb.189120,FATİH,28.94963,41.01743
istb.189118,FATİH İTFAİYE,28.95274,41.01552
istb.190427,FİRUZAN SADIKOĞLU İÖ,28.83681,41.058
istb.190426,GÖZTEPE MAHALLESİ,28.83474,41.06164
istb.190428,FİRUZAN SADIKOĞLU İÖ,28.83665,41.0579
istb.189907,KAZIM KARABEKİR MAH.,28.87551,41.0483
istb.189081,HASAN HALİFE MAH.,28.94292,41.017
istb.188545,BALİPAŞA,28.94525,41.01854
istb.189070,NİŞANCA,28.94701,41.02341
istb.189069,ÇARŞAMBA,28.9485,41.025
istb.189066,FETHİYE,28.9466,41.02715
istb.189065,DRAMAN,28.94386,41.02911
istb.189067,FETHİYE,28.94657,41.02711
istb.189068,ÇARŞAMBA,28.94838,41.02513
istb.189071,NİŞANCA,28.94709,41.02352
istb.188546,BALİPAŞA,28.94522,41.0185
istb.189080,HASAN HALİFE MAH.,28.94303,41.01711
istb.188986,EMİNÖNÜ,28.97002,41.01845
istb.185927,KADIKÖY,29.02425,40.9927
istb.188021,RIHTIM,29.0248,40.99236
istb.187145,FATİH SOKAK,29.03265,40.99937
istb.187248,UMUT SOKAK,29.03363,41.00157
istb.192197,KOŞUYOLU KÖPRÜSÜ,29.0348,41.00313
istb.192200,ACIBADEM LİSESİ,29.03766,41.00287
istb.192202,ACIBADEM METRO İST.,29.04568,41.00172
istb.192205,UZUNÇAYIR METROBÜS,29.05468,40.99933
istb.192207,ŞEYH ŞAMİL LİSESİ,29.06505,40.99544
istb.186915,BAHÇELER,29.07857,40.99035
istb.186154,YAVUZ SELİM CADDESİ,29.09213,40.98606
istb.186157,HABİRE YAHŞİ LİSESİ,29.0949,40.98747
istb.190586,EVREN CADDESİ,29.09661,40.99072
istb.190584,RABİA LEMAN İÖO,29.09845,40.98879
istb.186160,HALK CADDESİ,29.09908,40.98513
istb.186260,END.MESLEK LİSESİ,29.10107,40.9876
istb.186162,DEREYOLU,29.10403,40.98984
istb.186216,LEYLAK SOKAK,29.10593,40.99251
istb.186218,FULYA SOKAK,29.10714,40.99424
istb.186244,ÇİĞDEM SOKAK,29.11131,40.99343
istb.186350,SİNAN REİS,29.11807,40.99251
istb.186352,BURAK BEY,29.12298,40.99283
istb.186354,ATAŞEHİR,29.12795,40.99238
istb.186357,KAMELYA,29.1317,40.99153
istb.186359,KARDELEN,29.13576,40.9906
istb.186360,KARDELEN,29.13568,40.99072
istb.186358,KAMELYA,29.13182,40.99158
istb.186355,ATAŞEHİR,29.12789,40.99261
istb.186353,BURAK BEY,29.12308,40.99304
istb.186351,SİNAN REİS,29.11846,40.99268
istb.186349,SEDEF,29.11617,40.99265
istb.186243,ÇİĞDEM SOKAK,29.11133,40.99368
istb.186217,FULYA SOKAK,29.10707,40.99444
istb.186215,LEYLAK SOKAK,29.10567,40.99246
istb.186161,DEREYOLU,29.10339,40.98955
istb.186259,END.MESLEK LİSESİ,29.10125,40.98784
istb.186159,HALK CADDESİ,29.09899,40.9856
istb.186323,SÜTÇÜ YOLU CADDESİ,29.09785,40.98523
istb.190583,RABİA LEMAN İÖO,29.0985,40.98872
istb.190585,EVREN CADDESİ,29.09672,40.99079
istb.186158,HABİRE YAHŞİ LİSESİ,29.09465,40.98754
istb.186153,YAVUZ SELİM CADDESİ,29.09233,40.98627
istb.186914,BAHÇELER,29.07816,40.9909
istb.192208,ŞEYH ŞAMİL LİSESİ,29.06482,40.99591
istb.192204,UZUNÇAYIR METROBÜS,29.05574,40.99936
istb.192196,KOŞUYOLU KÖPRÜSÜ,29.03372,41.00429
istb.187838,İSFALT,29.02677,41.00565
istb.187126,VETERİNER S.M.LİSESİ,29.02131,41.00666
istb.185934,KADIKÖY,29.02442,40.9927
istb.186505,G.EĞİT.VE ARŞ.HAST.,29.05945,40.98566
istb.187684,M.BEYAZIT LİSESİ,29.06101,40.98814
istb.187661,TANZİM,29.06308,40.98959
istb.186402,ONİKİLER CAMİİ,29.06484,40.9886
istb.187663,M.SAFFET ANADOLU LİS,29.06602,40.98761
istb.187259,GÖZTEPE POLİKLİNİK,29.0672,40.98617
istb.187665,GÖZCÜBABA,29.06952,40.98584
istb.187686,ANAKENT KOLEJİ,29.07396,40.98815
istb.187702,GÖZTEPE KÖPRÜSÜ,29.07339,40.99118
istb.187704,GÖZTEPE KÖPRÜSÜ,29.07389,40.99347
istb.191750,BAĞKUR EVLERİ,29.07384,40.99845
istb.191748,ESİN SİTESİ,29.07353,41.0007
istb.191746,MOBİLYACILAR ÇARŞISI,29.07242,41.00384
istb.191726,DEVLET SU İŞLERİ,29.07363,41.00781
istb.191724,KIRKLAR,29.07467,41.01055
istb.191722,ÇEŞME,29.07537,41.01375
istb.187217,BULGURLU CADDESİ,29.07574,41.01554
istb.191653,BAĞLARİÇİ,29.07824,41.01749
istb.191836,NAMAZGAH SAPAĞI,29.08124,41.01888
istb.191832,LİSE YOLU,29.0858,41.01805
istb.191834,DUTLUK,29.08917,41.01806
istb.191830,NAMIK KEMAL LİSESİ,29.09171,41.01655
istb.191696,KURAN KURSU,29.09389,41.01559
istb.191698,CENGİZ TOPEL,29.09429,41.01265
istb.191700,ESENEVLER MH.,29.0925,41.01082
istb.191699,CENGİZ TOPEL,29.09433,41.0126
istb.191694,KURAN KURSU,29.0947,41.01583
istb.191829,NAMIK KEMAL LİSESİ,29.09148,41.01679
istb.191833,DUTLUK,29.08903,41.01821
istb.191831,LİSE YOLU,29.08591,41.01815
istb.191835,NAMAZGAH SAPAĞI,29.08058,41.01878
istb.191654,BAĞLARİÇİ,29.07814,41.01752
istb.187218,BULGURLU CADDESİ,29.0756,41.01561
istb.191721,ÇEŞME,29.07525,41.01371
istb.191723,KIRKLAR,29.07483,41.01128
istb.191725,DEVLET SU İŞLERİ,29.07334,41.00754
istb.191745,MOBİLYACILAR ÇARŞISI,29.0723,41.00416
istb.191747,ESİN SİTESİ,29.07267,41.00144
istb.191749,BAĞKUR EVLERİ,29.07368,40.99861
istb.187705,GÖZTEPE KÖPRÜSÜ,29.07352,40.99376
istb.187703,GÖZTEPE KÖPRÜSÜ,29.07293,40.99136
istb.187687,ANAKENT KOLEJİ,29.07315,40.98758
istb.187666,GÖZCÜBABA,29.06914,40.9862
istb.187664,M.SAFFET ANADOLU LİS,29.06615,40.98758
istb.186403,ONİKİLER CAMİİ,29.06499,40.98851
istb.187662,TANZİM,29.06327,40.98955
istb.187685,M.BEYAZIT LİSESİ,29.06102,40.98819
istb.186506,G.EĞİT.VE ARŞ.HAST.,29.05893,40.98495
istb.186496,LİBADİYE CADDESİ,29.07378,40.99512
istb.185937,KADIKÖY,29.02438,40.99261
istb.187640,HASANPAŞA,29.0411,40.99489
istb.187642,KADIKÖY ADLİYESİ,29.04621,40.99613
istb.187653,MANDIRA CADDESİ,29.04897,40.99556
istb.187654,KÖPRÜBAŞI,29.0502,40.99405
istb.185744,ŞEHİT ÇAĞLAR MENGÜ,29.05225,40.99274
istb.187659,HÜRRİYET,29.05487,40.99194
istb.186400,BANKALAR,29.05741,40.99126
istb.187657,FEVZİPAŞA,29.06044,40.99049
istb.187688,MERDİVENKÖY,29.07481,40.98645
istb.187690,GÖZCÜBABA LİSESİ,29.07616,40.98537
istb.184969,HAFIZ İMAM SOKAK,29.07835,40.9845
istb.187694,MÜMİN DERESİ,29.08031,40.98541
istb.186861,ADİLE NAŞİT SOKAK,29.08279,40.98508
istb.186862,CEBESOY SOKAK,29.08452,40.98466
istb.186863,ARAPGİRLİ CAMİ,29.08595,40.98415
istb.186864,MENGİ SOKAK,29.08743,40.98348
istb.186325,SPOR TESİSLERİ,29.0888,40.98296
istb.186152,PLAZALAR,29.08968,40.98451
istb.186156,HABİRE YAHŞİ LİSESİ,29.09617,40.98627
istb.186324,SÜTÇÜ YOLU CADDESİ,29.09773,40.98517
istb.186220,IHLAMUR SOKAK,29.10833,40.99606
istb.187699,1 C KAPISI,29.10776,40.99827
istb.187698,KENTPLUS 1 A KAPISI,29.10454,40.99859
istb.186165,KENTPLUS 1 B KAPISI,29.1058,40.99779
istb.186227,MENEKŞE SOKAK,29.10526,40.99617
istb.186224,ARDIÇ SOKAK,29.10338,40.9975
istb.190835,BEGONYA SOKAK,29.1019,40.9977
istb.186163,BATI ATAŞEHİR,29.10439,40.99547
istb.186226,MENEKŞE SOKAK,29.10667,40.99666
istb.186166,KENTPLUS 1 B KAPISI,29.1058,40.99779
istb.187697,KENTPLUS 1A KAPISI,29.10454,40.99886
istb.186219,IHLAMUR SOKAK,29.1081,40.99602
istb.186155,HABİRE YAHŞİ LİSESİ,29.09632,40.98633
istb.191588,NECLA CADDESİ,29.09437,40.98665
istb.192213,YENİ SAHRA,29.0877,40.98601
istb.187696,BELEDİYE EVLERİ,29.08387,40.98621
istb.187695,MÜMİN DERESİ,29.08007,40.98536
istb.184968,HAFIZ İMAM SOKAK,29.07808,40.98468
istb.187691,GÖZCÜBABA LİSESİ,29.07688,40.98501
istb.187689,MERDİVENKÖY,29.07477,40.9866
istb.187658,FEVZİPAŞA,29.06052,40.99054
istb.186401,BANKALAR,29.05752,40.99128
istb.187660,HÜRRİYET,29.05574,40.99176
istb.185743,ŞEHİT ÇAĞLAR MENGÜ,29.05212,40.99292
istb.187655,KÖPRÜBAŞI,29.0503,40.99406
istb.187652,MANDIRA CADDESİ,29.04894,40.99589
istb.187651,Ş.ER BÜLENT ALTINSOY,29.04951,40.99799
istb.187643,İNCİRLİBOSTAN,29.05115,40.99935
istb.187650,Ş.ER BÜLENT ALTINSOY,29.04948,40.99815
istb.187641,KADIKÖY ADLİYESİ,29.04635,40.99615
istb.187639,HASANPAŞA,29.04199,40.99512
istb.192051,BELEDİYE,29.03697,40.99414
istb.188203,AKSARAY PERON,28.94682,41.01211
istb.193636,KAZIM BEKTAŞ CAMİİ,28.79813,41.01231
istb.189956,SİTELER,28.79789,41.01431
istb.189958,MASLAKÇEŞME,28.79759,41.01657
istb.189960,100. YIL İÖO,28.79732,41.02039
istb.190334,HALK PAZARI,28.79681,41.02226
istb.189962,PAZAR YOLU,28.79633,41.02461
istb.193107,HAKAN CAD,28.79619,41.02879
istb.189967,İNÖNÜ MAHALLESİ,28.79632,41.02666
istb.189501,EVLİYA ÇELEBİ,28.79652,41.03052
istb.189864,OSMANGAZİ,28.79349,41.03293
istb.194168,HALKALI CAMLIK,28.79002,41.03348
istb.194401,4. CADDE,28.77017,41.03501
istb.194372,MENEKŞE SİTESİ,28.7717,41.03722
istb.194371,MENEKŞE SİTESİ,28.77186,41.03767
istb.194400,4.CADDE,28.77001,41.03506
istb.189096,FINDIKZADE,28.93953,41.013
istb.188245,OĞUZHAN,28.94065,41.01499
istb.189595,MERHABA,28.81034,41.00875
istb.190121,20 TEMMUZ CADDESİ,28.80615,41.00858
istb.190970,TEVFİKBEY MAHALLESİ,28.80396,41.00893
istb.189631,ÇINARYOLU,28.80129,41.00987
istb.190118,Ş. KARABIYIK LİS,28.80187,41.0113
istb.190304,EMEK SİTELERİ,28.80411,41.01546
istb.190306,ASLAN SOKAK,28.80469,41.0192
istb.190308,NASREDDİN HOCA İ.Ö.O,28.80616,41.02303
istb.190310,MUAMMER AKSOY CAD.,28.80692,41.02525
istb.192919,BASIN EKSPRES YOLU,28.80921,41.02779
istb.190212,FATİH CADDESİ,28.80586,41.02934
istb.190210,AŞURA MEYDANI,28.80295,41.03143
istb.190208,SİTELER,28.79852,41.03305
istb.190206,ORKİDE,28.7948,41.03439
istb.189936,M.AKIF ERSOY LİSESİ,28.79132,41.03573
istb.189965,LALE ŞEHİR,28.77928,41.04217
istb.193103,ÇİMENTEPE,28.78143,41.04417
istb.193099,HALKALI KÜLTÜR MERKE,28.78693,41.05538
istb.193101,HALKALI LİSESİ,28.77701,41.05665
istb.193100,HALKALI LİSESİ,28.77703,41.05576
istb.193098,HALKALI KÜLTÜR MERKE,28.78727,41.05538
istb.193102,ÇİMENTEPE,28.78129,41.04428
istb.189964,LALE ŞEHİR,28.77847,41.04187
istb.193633,HALKALI PARK,28.79054,41.034
istb.189935,M.AKIF ERSOY LİSESİ,28.79163,41.0358
istb.190205,ORKİDE,28.79495,41.03424
istb.190207,SİTELER,28.79837,41.033
istb.190209,AŞURA MEYDANI,28.80339,41.03114
istb.193150,ERLER PARKI,28.80326,41.02841
istb.190211,FATİH CADDESİ,28.80526,41.02843
istb.190309,MUAMMER AKSOY CAD.,28.80682,41.02532
istb.190307,NASREDDİN HOCA İ.Ö.O,28.80609,41.02321
istb.190305,ASLAN SOKAK,28.8046,41.01931
istb.190303,EMEK SİTELERİ,28.80453,41.01586
istb.190119,ŞEHİT KARABIYIK LİSE,28.80193,41.01116
istb.189630,ÇINARYOLU,28.80091,41.00976
istb.190969,TEVFİKBEY MAHALLESİ,28.80392,41.00877
istb.190120,20 TEMMUZ CADDESİ,28.80659,41.00836
istb.189493,HASAN GÜREL İLK ÖĞRE,28.80832,41.00733
istb.189594,MERHABA,28.8108,41.00874
istb.184162,TAKSİM,28.98879,41.03838
istb.189581,ATEŞTUĞLA,28.83015,41.04584
istb.189862,MEZARLIK,28.82943,41.047
istb.190151,PİRİREİS,28.82523,41.04578
istb.190149,EVREN MAHALLESİ,28.82021,41.04518
istb.190147,SANAYİ MAHALLESİ,28.81608,41.04525
istb.194027,İKİTELLİ KÖPRÜSÜ,28.81355,41.04542
istb.190327,1.ETAP KONUTLARI,28.79954,41.04787
istb.194026,İKİTELLİ KÖPRÜSÜ,28.8069,41.04618
istb.190148,SANAYİ MAHALLESİ,28.81615,41.0451
istb.190150,EVREN MAHALLESİ,28.81907,41.04434
istb.190152,PİRİREİS,28.82408,41.04504
istb.188392,ZEYTİNBURNU,28.89129,41.00089
istb.194364,A.NAZİF GÜRMAN MAH.,28.89044,41.00413
istb.193724,DR.İFFET İÖO,28.7876,41.01601
istb.193723,PALMİYE SOKAK,28.78779,41.01789
istb.189970,KAVŞAK,28.78684,41.02095
istb.189972,KÖMÜRCÜ YOLU CADDESİ,28.78598,41.0221
istb.189974,SÖĞÜTLÜÇEŞME,28.78361,41.02378
istb.189973,KÖMÜRCÜ YOLU CADDESİ,28.78606,41.02191
istb.189971,KAVŞAK,28.78669,41.02095
istb.189953,YEŞIL CAMİİ,28.7862,41.01798
istb.188394,ZEYTİNBURNU,28.89124,41.00097
istb.190923,MALAZGİRT CADDESİ,28.80857,41.00566
istb.189494,HASAN GÜREL İLK ÖĞRE,28.80832,41.00653
istb.190478,ZEYNEBİYE CAMİİ,28.80327,41.03409
istb.190456,PEMBE EVLER,28.80361,41.0377
istb.190420,ESKİ BAGLAR CAD,28.80273,41.04023
istb.193160,HALKALI HAYAT PARKI,28.80248,41.04194
istb.189933,BAĞLARALTI,28.80318,41.04364
istb.194025,İKİTELLİ KÖPRÜSÜ,28.80696,41.04621
istb.193707,SÜPHAN SOKAK,28.80755,41.05351
istb.190315,ŞAHİN SOKAK,28.80404,41.05285
istb.190317,UĞURLU SOKAK,28.804,41.05497
istb.190319,AŞIK VEYSEL CADDESİ,28.80394,41.05719
istb.190321,MEHMET AKİF MAH.,28.80378,41.05999
istb.194003,HASTANE,28.80247,41.06167
istb.192813,M.SANAYI.A.KAPISI,28.79532,41.06259
istb.194002,MARMARA SANAYİ SİT.,28.8002,41.0613
istb.192812,M.SAN.A.KAPISI,28.79551,41.06259
istb.194004,HASTANE,28.80225,41.0616
istb.190320,MEHMET AKİF MAH.,28.80371,41.06004
istb.190318,AŞIK VEYSEL CADDESİ,28.80385,41.0572
istb.190316,UĞURLU SOKAK,28.80389,41.05509
istb.193156,MEHMETCİK SOKAK,28.80398,41.05311
istb.190313,BİLGE SOKAK,28.80402,41.05069
istb.189934,BAĞLARALTI,28.80299,41.04371
istb.193159,HALKALI HAYAT PARKI,28.80248,41.04196
istb.190419,ESKİ BAĞLAR CADDESİ,28.80209,41.04123
istb.190455,PEMBE EVLER,28.80345,41.03762
istb.190477,ZEYNEBİYE CAMİİ,28.80313,41.03415
istb.194105,TEM YOLU,28.78659,41.06728
istb.189920,ELEKTRİK  KURUMU,28.7863,41.06852
istb.189732,KERESTECİLER SİTESİ,28.78587,41.07264
istb.189918,ZİYA GÖKALP,28.78679,41.0763
istb.189734,AYMA KOOP.,28.78598,41.08024
istb.189682,SARAÇLAR SİTESİ,28.78461,41.08527
istb.189737,TORMAK SAN.SİT.,28.78679,41.08902
istb.189815,BAŞAKŞEHİR YOLU,28.7885,41.09225
istb.189739,SANAYİ,28.79053,41.09568
istb.189741,CAHİT ZARİFOĞLU İÖO.,28.79018,41.09912
istb.189743,BAŞAK ŞEHİR BULVARI,28.78905,41.10065
istb.189745,B.ŞEHİR 1.ETAP CAMİİ,28.78998,41.10454
istb.194051,BAŞAKŞEHİR 2.ETAP,28.78709,41.10697
istb.193040,İSKİ TESİSLERİ,28.78971,41.10834
istb.193038,ÜNİVERSİTELİLER ST,28.78932,41.10915
istb.193036,BİZİMEVLER,28.78611,41.11095
istb.193034,FESLEĞEN SİTESİ,28.78621,41.11206
istb.189572,KÜLTÜR EVİ,28.78981,41.11308
istb.192987,A1 YOLU,28.79196,41.11132
istb.192985,ONURKENT,28.79275,41.10868
istb.189455,A2 CADDESİ,28.79427,41.10753
istb.189645,BAŞAKŞEHİR POLİS MRK,28.80222,41.10416
istb.189452,GÜVENEVLER SİTESİ,28.80337,41.10359
istb.192950,BAŞAKŞEHİR METRO,28.80381,41.10591
istb.194192,YEŞİLVADİ,28.80307,41.1111
istb.190387,BAŞAKŞEHİR 5.ETAP,28.80464,41.11407
istb.190385,HİSAR SİTESİ,28.80497,41.11681
istb.190384,HİSAR SİTESİ,28.80478,41.11679
istb.190386,BAŞAKŞEHİR 5.ETAP,28.8044,41.11404
istb.194191,YEŞİLVADİ,28.8027,41.11114
istb.192949,BAŞAKŞEHİR METRO,28.80369,41.10593
istb.189644,BAŞAKŞEHİR POLİS MRK,28.80179,41.10525
istb.189748,BAŞAKŞEHİR 1.ETAP,28.7944,41.106
istb.189746,KÜLTÜR TESİSLERİ,28.79241,41.10656
istb.192984,ONURKENT,28.7932,41.10857
istb.192986,A1 YOLU,28.79239,41.11144
istb.189571,KÜLTÜR EVİ,28.78963,41.11328
istb.193033,FESLEĞEN SİTESİ,28.78598,41.11229
istb.193035,BİZİMEVLER,28.78581,41.11055
istb.193037,ÜNİVERSİTELİLER ST,28.78932,41.10931
istb.193039,İSKİ TESİSLERİ,28.78952,41.10825
istb.194050,BAŞAKŞEHİR 2.ETAP,28.78692,41.10725
istb.189744,B.ŞEHİR 1.ETAP CAMİİ,28.78951,41.10444
istb.189742,BAŞAK ŞEHİR BULVARI,28.78866,41.10045
istb.189740,CAHİT ZARİFOĞLU İÖO.,28.79004,41.09892
istb.189874,DÖRTYOL,28.79238,41.09737
istb.189738,SANAYİ,28.79017,41.09568
istb.189814,BAŞAKŞEHİR YOLU,28.78839,41.09267
istb.189736,TORMAK SAN.SİT,28.78651,41.08907
istb.189681,SARAÇLAR SİTESİ,28.78471,41.08398
istb.189733,AYMA KOOP.,28.78566,41.08023
istb.189917,ZİYA GÖKALP,28.78648,41.07583
istb.189731,KERESTECİLER SİTESİ,28.78543,41.07241
istb.189919,ELEKTRİK KURUMU,28.78593,41.06852
istb.194104,TEM YOLU,28.7863,41.06696
istb.188204,AKSARAY PERON,28.94836,41.01123
istb.189409,BEŞYOL,28.79479,40.99487
istb.189564,BAĞLAR CADDESİ,28.79082,40.99326
istb.189929,SEFAKÖY YÜZME HAVUZU,28.79231,40.99773
istb.189931,GÜLTEPE MAHALLESİ,28.76843,41.01792
istb.189932,BİGA SOKAK,28.79291,41.00306
istb.190024,ÇARDAKLI,28.79011,41.00299
istb.190026,SULTANMURAT,28.78516,41.00176
istb.190028,DÖRTYOL,28.78041,40.99996
istb.190458,İNÖNÜ CADDESİ,28.77661,40.9973
istb.189986,TEPE ÜSTÜ,28.77471,40.99577
istb.194337,KÜÇÜKÇEKMECE LİSESİ,28.77649,40.99255
istb.190037,SEL SOKAK,28.77769,40.99497
istb.190457,İNÖNÜ CADDESİ,28.77634,40.99702
istb.190029,DÖRTYOL,28.78059,40.99989
istb.190027,SULTANMURAT,28.78546,41.00164
istb.190025,ÇARDAKLI,28.79007,41.00287
istb.190023,FEVZİ ÇAKMAK,28.7933,41.00363
istb.190040,SEFAKÖY LİSESİ,28.79033,40.99304
istb.190513,REYHAN CADDESİ,28.78686,40.99282
istb.190039,YAVUZ SELİM CAMİİ,28.78271,40.9924
istb.190032,YAHYA KEMAL BEYATLI,28.78033,40.99215
istb.189985,TEPE ÜSTÜ,28.77608,40.99609
istb.194332,ORTANCA CADDESİ,28.77588,40.99728
istb.190035,CUMHURİYET MAHALLESİ,28.77665,40.99972
istb.190033,SU TERAZİSİ,28.77849,41.00282
istb.193705,BATI POLİKLİNİĞİ,28.77931,41.00774
istb.190495,GÜVERCİN CADDESİ,28.77706,41.00875
istb.190031,KANARYA,28.77193,41.01162
istb.190418,MENEKŞE,28.77455,41.01419
istb.190381,PAPATYA,28.77605,41.01595
istb.190302,KANARYA MEZARLIĞI,28.77842,41.01732
istb.190234,SÖĞÜTLÜÇEŞME KÖPRÜSÜ,28.78184,41.0191
istb.193831,MİMAR SİNAN İÖO.,28.78384,41.02396
istb.193829,S.ÇEŞME BİLGİ EVİ,28.78731,41.0275
istb.193152,1235. SOKAK,28.79212,41.02847
istb.193828,S.ÇEŞME BİLGİ EVİ,28.78671,41.02759
istb.193830,MİMAR SİNAN İÖO.,28.7833,41.02375
istb.190233,SÖĞÜTLÜÇEŞME KÖPRÜSÜ,28.7816,41.01927
istb.190301,KANARYA MEZARLIĞI,28.77835,41.01757
istb.190380,PAPATYA,28.77587,41.01591
istb.190417,MENEKŞE,28.77425,41.01432
istb.190030,KANARYA,28.7716,41.01165
istb.190510,KANARYA İSTASYONU,28.7747,41.01102
istb.192827,DR. SADIK AHMET CAD.,28.77846,41.01023
istb.193704,BATI POLİKLİNİĞİ,28.77881,41.00936
istb.190034,SU TERAZİSİ,28.77836,41.00292
istb.190036,CUMHURİYET MAHALLESİ,28.77649,40.99965
istb.194331,ORTANCA CADDESİ,28.77679,40.99784
istb.194338,ORHANGAZİ SOKAK,28.78036,40.99324
istb.190038,YAVUZ SELİM CAMİİ,28.78259,40.99228
istb.190512,REYHAN CADDESİ,28.78687,40.99269
istb.190041,SEFAKÖY LİSESİ,28.79032,40.99294
istb.190514,BEŞYOL,28.79363,40.99254
istb.190454,BAĞLAR,28.79187,40.99118
istb.189404,POLİS OKULU,28.79676,40.98744
istb.189408,BEŞYOL,28.79532,40.99484
istb.189410,KÜÇÜKÇEKMECE BELEDİY,28.79934,40.99875
istb.189012,YENİKAPI,28.95615,41.0036
istb.189161,YENİKAPI SAHİL,28.95485,41.00373
istb.188294,EDİRNEKAPI SURDIŞI,28.93439,41.03199
istb.189218,ŞEHİTLİK,28.9279,41.03443
istb.189222,DEMİRKAPI,28.92555,41.03517
istb.188307,DEMİRKAPI SANAYİ,28.9235,41.03706
istb.189226,TOPÇULAR,28.92064,41.04093
istb.189228,KERVANÇEŞME,28.91798,41.04299
istb.189230,RAMİ YOLU,28.91597,41.04615
istb.189232,SAĞLIK MERKEZİ,28.9134,41.04878
istb.189032,ALPERENLER,28.91153,41.05087
istb.189236,BEREÇ,28.91129,41.05333
istb.188143,PLEVNE LİSESİ,28.91434,41.05479
istb.188330,HALİTPAŞA CADDESİ,28.9139,41.05671
istb.188328,CUMHURİYET MEYDANI,28.9128,41.05976
istb.188557,KÜÇÜKKÖY YOLU,28.9113,41.06165
istb.188192,BAĞLAR CADDESİ,28.90971,41.06446
istb.188188,CEMAL GÜRSEL İÖO,28.90812,41.06767
istb.188556,G.O.PAŞA CADDESİ,28.9072,41.0694
istb.189216,KÜÇÜKKÖY İSTANBUL CD,28.90642,41.07049
istb.188174,KÜÇÜKKÖY,28.9043,41.07249
istb.188625,VALİDE SUYU PARK,28.90705,41.07516
istb.188219,GAZİ YAŞARGİL İÖO,28.90669,41.07867
istb.188217,HEKİMSUYU CADDESİ,28.90855,41.08305
istb.188214,SPOR TESİSİ,28.90823,41.08676
istb.188211,SU KEMERİ,28.90734,41.09392
istb.188366,75. YIL İSTİKLAL CD,28.90745,41.09647
istb.188209,FEVZİ ÇAKMAK,28.90496,41.09806
istb.188589,ŞAİR ABAY LİSESİ,28.89978,41.09934
istb.188205,İSMET İNÖNÜ CADDESİ,28.89851,41.10175
istb.188207,GAZİ MAHALLESİ,28.89741,41.10383
istb.188201,BAHAR,28.89636,41.1059
istb.188177,GAZİ  POLİS MERKEZİ,28.8952,41.10798
istb.188197,GAZİ İÖO,28.89113,41.10547
istb.188195,GAZİ ESENTEPE,28.88951,41.10236
istb.188184,YUNUS EMRE MAH.,28.89022,41.09871
istb.188253,ULUBATLI,28.92883,41.02384
istb.189082,TOPKAPI,28.92703,41.02105
istb.189117,VEZNECİLER,28.96026,41.01183
istb.188608,ŞEHZADEBAŞI,28.95749,41.01314
istb.189134,EYÜP SULTAN BULVARI,28.92624,41.03859
istb.189132,NİŞANCA,28.92803,41.04148
istb.188272,DÜĞMECİLER,28.92949,41.0436
istb.188335,EYÜP SULTAN,28.93253,41.04598
istb.188343,ZALPAŞA,28.93474,41.04608
istb.188270,EYÜP İSKELESİ,28.93744,41.04647
istb.188271,EYÜP İSKELESİ,28.93724,41.04682
istb.188344,ZALPAŞA,28.93357,41.04596
istb.188334,EYÜP SULTAN,28.93114,41.04542
istb.188273,DÜĞMECİLER,28.92935,41.04376
istb.189133,NİŞANCA,28.92783,41.04162
istb.189135,EYÜP SULTAN BULVARI,28.92606,41.03856
istb.189223,DEMİRKAPI,28.92383,41.03612
istb.189219,ŞEHİTLİK,28.92835,41.03404
istb.188293,EDİRNEKAPI SURDIŞI,28.93445,41.03174
istb.188607,ŞEHZADEBAŞI,28.95722,41.01314
istb.190162,ÖRNEKTEPE,28.89107,41.01092
istb.190164,MERTER SİTELERİ,28.89048,41.01437
istb.193990,GENÇOSMAN T.M.L,28.87787,41.02826
istb.190967,GÜNGÖREN YOLU,28.87523,41.03493
istb.190521,ÜÇYÜZLÜ CAMİİ,28.87288,41.03811
istb.190236,POSTAHANE,28.87874,41.03889
istb.190930,CUMHURİYET MEYDANI,28.88241,41.03754
istb.190522,ÜÇYÜZLÜ CAMİİ,28.87247,41.03842
istb.190968,GÜNGÖREN YOLU,28.87478,41.03517
istb.193989,GENÇOSMAN T.M.L,28.8778,41.02818
istb.190163,MERTER SİTELERİ,28.89034,41.01431
istb.190161,ÖRNEKTEPE,28.89098,41.01099
istb.188463,CEVİZLİBAĞ,28.90994,41.01648
istb.194037,TEKNİK OTO SAN.,28.90502,41.0183
istb.192946,KALE İŞ MERKEZİ,28.9034,41.01962
istb.193821,ATLI ZİNCİR,28.90263,41.02078
istb.190344,DAVUTPAŞA KAMPÜSÜ,28.89835,41.02125
istb.192821,YABANCI DİLLER OKULU,28.89555,41.02494
istb.193116,İNŞAAT FAKÜLTESİ,28.8915,41.02231
istb.193118,YILDIZ TEKNİK ÜNİVER,28.89347,41.02522
istb.189213,TOPKAPI BAYRAMPAŞA,28.92448,41.02325
istb.189049,TOPKAPI METROBUS,28.92289,41.02409
istb.188650,MATBAACILAR SİTESİ,28.9203,41.02536
istb.188118,MALTEPE,28.91632,41.0292
istb.188106,BAYRAMPAŞA,28.91264,41.03327
istb.188553,DEMİRCİLER SİTESİ,28.90956,41.03153
istb.188417,AYRANCILAR SAN. SİT,28.9065,41.03229
istb.190941,BAYIRÇEŞME,28.90429,41.03359
istb.190939,ULUĞBEY İÖO,28.89946,41.03333
istb.190937,AYVALIDERE 2,28.89661,41.03404
istb.189913,OTOGAR,28.89511,41.03985
istb.190938,ULUĞBEY İÖO,28.89986,41.03295
istb.190940,BAYIRÇEŞME,28.90471,41.03237
istb.188416,AYRANCILAR SAN. SİT.,28.90682,41.03252
istb.188554,DEMİRCİLER SİTESİ,28.9088,41.03171
istb.188313,HASTANE YOLU CAD.,28.90825,41.02916
istb.193770,ESKOOP,28.8051,41.08409
istb.188552,GÜMÜŞSUYU CADDESİ,28.90994,41.02868
istb.188763,MALTEPE HASTANESİ,28.91367,41.03002
istb.188119,MALTEPE,28.91627,41.02903
istb.188649,MATBAACILAR SİTESİ,28.92018,41.02532
istb.184159,TAKSİM,28.98591,41.03736
istb.188984,EMİNÖNÜ,28.96961,41.01828
istb.190436,YENİBOSNA METRO,28.83803,40.99072
istb.189157,EMİNÖNÜ İSKELE,28.97529,41.0167
istb.188996,SARAYBURNU,28.98649,41.01565
istb.189000,AKBIYIK,28.98399,41.00527
istb.189002,ÇATLADIKAPI,28.97469,41.00224
istb.189004,KUMKAPI,28.96708,41.00298
istb.189006,BALIKÇI BARINAĞI,28.96005,41.00359
istb.189345,DEMİRYOLU CADDESİ,28.83951,40.96767
istb.189347,YEŞİLYURT,28.83773,40.96435
istb.189349,SİPAHİOĞLU,28.84031,40.96141
istb.189351,FENER YOLU,28.83663,40.95969
istb.189353,MECİDİYE CAMİİ,28.83122,40.95978
istb.189354,ÇOCUK PARKI,28.82534,40.96019
istb.189355,PAZAR YOLU,28.82175,40.95964
istb.189356,ZİYA ERDEM,28.81772,40.95868
istb.189357,YEŞİLKÖY,28.81563,40.95779
istb.189358,İSTON,28.82063,40.95838
istb.189718,PARK,28.81941,40.96106
istb.189359,İSTASYON CADDESİ,28.81941,40.96106
istb.189360,GAZİ EVRENOS CADDESİ,28.82523,40.96119
istb.189361,ANAFARTALAR,28.83173,40.96066
istb.189352,FENER YOLU,28.83682,40.96038
istb.189350,SİPAHİOĞLU,28.8406,40.96152
istb.189348,YEŞİLYURT,28.83752,40.9646
istb.189346,DEMİRYOLU CADDESİ,28.83987,40.9679
istb.189021,NARLIKAPI,28.9312,40.99495
istb.189005,BALIKÇI BARINAĞI,28.96037,41.00337
istb.188999,AKBIYIK,28.98305,41.00443
istb.188995,SARAYBURNU,28.98676,41.01556
istb.188601,İNEBEY,28.95016,41.00864
istb.189047,LANGA,28.94843,41.00704
istb.189045,DAVUTPAŞA,28.94434,41.00401
istb.189043,İSTANBUL HASTANESİ,28.93775,41.00256
istb.189041,AĞAHAMAMI,28.93498,41.00154
istb.189020,GENÇOSMAN,28.93166,40.99999
istb.189039,MERHABA,28.92951,40.99763
istb.189202,İMRAHOR,28.92708,40.99608
istb.189203,YEDİKULE,28.92449,40.99389
istb.189201,İMRAHOR,28.92714,40.99608
istb.189038,MERHABA,28.92964,40.9978
istb.189019,GENÇOSMAN,28.93134,40.99971
istb.189040,AĞAHAMAMI,28.93511,41.0016
istb.189042,İSTANBUL HASTANESİ,28.93816,41.00259
istb.189044,DAVUTPAŞA,28.94477,41.00435
istb.189046,LANGA,28.94807,41.00685
istb.188600,İNEBEY,28.95021,41.0088
istb.190441,YENİBOSNA METRO,28.83758,40.99068
istb.193546,GÖL KONUTLARI,28.77115,41.02238
istb.190365,FATİH CADDESİ,28.75881,41.04386
istb.190006,SERALAR,28.75607,41.04739
istb.190423,YENİYOL,28.75356,41.05052
istb.190020,CUMHURİYET CADDESİ,28.75323,41.05344
istb.189992,OSMANLI CADDESİ,28.75333,41.06495
istb.189990,SU DEPOSU,28.75307,41.06791
istb.189988,GÖKTEPE,28.75217,41.0705
istb.194016,TEPE ÜSTÜ,28.7517,41.07192
istb.189803,BAYRAMTEPE,28.75087,41.0736
istb.189982,GÜVERCİNTEPE,28.75051,41.07709
istb.189984,PAZAR YOLU,28.75065,41.08044
istb.189980,MAHMUT ŞEVKET İÖO,28.75106,41.08515
istb.189978,KURUTOPRAK,28.75122,41.0866
istb.189976,SON EVLER,28.75312,41.09166
istb.192915,KAYAŞEHİR YOLU,28.75387,41.09676
istb.193095,RUMELİLER SİTESİ,28.76079,41.09887
istb.193786,FİRUZE SİTESİ,28.76249,41.09718
istb.193787,K.ŞEHİR SAĞLIK OCAĞI,28.76322,41.0996
istb.193784,OPAL SİTESİ,28.7628,41.10259
istb.193782,ZÜMRÜT SİTESİ,28.76037,41.10542
istb.193780,MERKEZ KAYAŞEHİR,28.75876,41.10808
istb.193778,OLTU SİTESİ,28.75635,41.10917
istb.193776,AKİK SİTESİ,28.75365,41.10858
istb.193774,SEDEF SİTESİ,28.75318,41.10725
istb.193772,ELMAS SİTESİ,28.75307,41.10506
istb.193746,KAYAŞEHİR,28.74736,41.10637
istb.193771,ELMAS SİTESİ,28.75358,41.10507
istb.193773,SEDEF SİTESİ,28.7533,41.10725
istb.193775,AKİK SİTESİ,28.7539,41.10854
istb.193777,OLTU SİTESİ,28.75656,41.10903
istb.193779,MERKEZ KAYAŞEHİR,28.7587,41.10705
istb.193781,ZÜMRÜT SİTESİ,28.76018,41.10521
istb.193783,OPAL SİTESİ,28.76231,41.10229
istb.193785,YAKUT SİTESİ,28.76156,41.09922
istb.193094,RUMELİLER SİTESİ,28.76045,41.09933
istb.192914,KAYAŞEHİR YOLU,28.75348,41.09764
istb.189975,SON EVLER,28.75147,41.09101
istb.189977,KURUTOPRAK,28.75086,41.08679
istb.189979,MAHMUT ŞEVKET İÖO,28.75079,41.08496
istb.189983,PAZAR YOLU,28.75054,41.08047
istb.189981,GÜVERCİNTEPE,28.75039,41.0773
istb.189802,BAYRAMTEPE,28.75087,41.0736
istb.194015,TEPE ÜSTÜ,28.75154,41.07197
istb.189987,GÖKTEPE,28.75211,41.07027
istb.189989,SU DEPOSU,28.7529,41.06793
istb.189991,OSMANLI CADDESİ,28.75315,41.06502
istb.189698,BAYRAMTEPE YOLU,28.75215,41.06288
istb.194138,YARIMBURGAZ YOLU,28.75029,41.06091
istb.190011,YARIMBURGAZ  MAH.,28.75332,41.05929
istb.194412,FIRIN,28.75272,41.05684
istb.190019,CUMHURİYET CADDESİ,28.75308,41.05349
istb.190422,YENİYOL,28.7535,41.05034
istb.190005,SERALAR,28.75602,41.0472
istb.190364,FATİH CADDESİ,28.7586,41.04398
istb.193768,İSTİHDAM,28.8051,41.08406
istb.193913,BURÇ KOLEJİ,28.80389,41.0924
istb.192952,MİSSTANBUL EVLERİ,28.80642,41.09428
istb.194363,ENSAR KOLEJİ,28.80588,41.09667
istb.194361,KANLICA SİTESİ,28.80457,41.09875
istb.194231,KAVACIK SİTESİ,28.80377,41.10175
istb.193883,MİMAR.K.BULVARI,28.78053,41.10776
istb.193881,OLİMPİYAT BULVARI,28.78134,41.10557
istb.193131,BAHÇETEPE,28.77337,41.0974
istb.193791,16.BÖLGE,28.76858,41.10347
istb.193887,15.BÖLGE,28.76684,41.10586
istb.193789,SAFİR SİTESİ,28.76312,41.10374
istb.193745,KAYAŞEHİR,28.74647,41.10623
istb.193788,SAFİR SİTESİ,28.76405,41.10385
istb.193886,15.BÖLGE,28.76707,41.10485
istb.193790,16.BÖLGE,28.76818,41.10496
istb.193130,BAHÇETEPE,28.77346,41.09698
istb.193880,OLİMPİYAT BULVARI,28.78151,41.10549
istb.193882,MİMAR .K.BULVARI,28.78074,41.1081
istb.194230,KAVACIK SİTESİ,28.80347,41.10143
istb.194360,KANLICA SİTESİ,28.80436,41.09877
istb.194362,ENSAR KOLEJİ,28.80563,41.09627
istb.192951,MİSSTANBUL EVLERİ,28.80615,41.09421
istb.193912,BURÇ KOLEJİ,28.80396,41.09277
istb.193767,İSTİHDAM,28.80178,41.0882
istb.193769,ESKOOP,28.8042,41.0849
istb.184255,NURTEPE-VİYADÜK,28.9587,41.07662
istb.189256,HAMZA YERLİKAYA,28.87004,41.08627
istb.189258,BAŞTABYA,28.86604,41.08857
istb.188442,MAHMUTBEY YOLU,28.8492,41.11029
istb.188116,MALKOÇOĞLU,28.85185,41.1146
istb.189282,ÇATAL ZEYTİN,28.85468,41.11489
istb.189284,MESCİDİ SELAM,28.8504,41.11712
istb.189269,MESCİDİ SELAM CAMİİ,28.84542,41.12078
istb.189286,İSFALT,28.84285,41.12493
istb.189288,HABİBLER MAHALLESİ,28.83832,41.12905
istb.189290,HABİPLER,28.83415,41.13298
istb.188630,TEPEÜSTÜ,28.82767,41.13575
istb.189294,ESENBAHÇE,28.8213,41.13626
istb.189296,ARNAVUTKÖY YOLU,28.81589,41.13646
istb.189298,SİNCANLAR,28.80079,41.14213
istb.188647,FENERTEPE YOLU,28.79561,41.14507
istb.188473,11. BÖLGE,28.79219,41.1427
istb.188471,YEŞİL KORU,28.79046,41.13754
istb.188469,13. BÖLGE,28.79045,41.13758
istb.188486,TOKİ OSMANGAZİ İÖO,28.78808,41.13386
istb.188467,14. BÖLGE,28.78692,41.13154
istb.188465,17.BÖLGE,28.77762,41.12798
istb.193889,15.BÖLGE,28.76757,41.10873
istb.193888,15.BÖLGE,28.76804,41.10815
istb.188464,17.BÖLGE,28.77504,41.12666
istb.188466,14. BÖLGE,28.78689,41.13157
istb.188485,TOKİ OSMANGAZİ İÖO,28.7884,41.13409
istb.188468,13. BÖLGE,28.78951,41.13512
istb.188470,YEŞİL KORU,28.7912,41.13669
istb.188472,11. BÖLGE,28.79149,41.14432
istb.188648,FENERTEPE YOLU,28.79561,41.1448
istb.189297,SİNCANLAR,28.80037,41.14207
istb.189295,ARNAVUTKÖY YOLU,28.81678,41.13618
istb.189293,ESENBAHÇE,28.82074,41.13603
istb.188629,TEPEÜSTÜ,28.82771,41.13564
istb.189289,HABİPLER,28.83407,41.13293
istb.189287,HABİBLER MAHALLESİ,28.83823,41.12892
istb.189285,İSFALT,28.84312,41.12413
istb.189283,MESCİDİ SELAM,28.84952,41.1174
istb.188117,MALKOÇOĞLU,28.8512,41.11409
